$GNRMC,081923.000,A,0206.915840,S,10606.853911,E,0.000,126.03,040125,,E,A*1E
$GNVTG,126.03,T,,M,0.000,N,0.000,K,A*25
$GNGGA,081923.000,0206.915840,S,10606.853911,E,1,19,0.72,45.903,M,0,M,,*75
$GPGSA,A,3,02,03,04,07,08,09,17,21,,,,,1.37,0.72,1.17*03
$BDGSA,A,3,02,03,05,06,07,08,09,10,11,13,14,,1.37,0.72,1.17*16
$GPGSV,3,1,09,01,,,35,02,63,057,44,03,25,153,36,04,39,183,38*49
$GPGSV,3,2,09,07,48,346,46,08,12,023,15,09,46,224,44,17,32,261,37*7E
$GPGSV,3,3,09,21,42,045,29*4F
$BDGSV,3,1,12,02,63,268,40,03,84,087,40,04,28,090,00,05,35,270,32*62
$BDGSV,3,2,12,06,75,027,35,07,40,348,36,08,26,168,29,09,62,357,42*66
$BDGSV,3,3,12,10,42,330,37,11,46,016,35,13,27,178,33,14,18,159,27*66
$GNGLL,0206.915840,S,10606.853911,E,081923.000,A,A*58
$GNTXT,01,01,02,ANTSTATUS=OK*25
$GNRMC,081924.000,A,0206.915839,S,10606.853910,E,0.000,126.03,040125,,E,A*16
$GNVTG,126.03,T,,M,0.000,N,0.000,K,A*25
$GNGGA,081924.000,0206.915839,S,10606.853910,E,1,19,0.72,45.910,M,0,M,,*7F
$GPGSA,A,3,02,03,04,07,08,09,17,21,,,,,1.37,0.72,1.17*03
$BDGSA,A,3,02,03,05,06,07,08,09,10,11,13,14,,1.37,0.72,1.17*16
$GNGLL,0206.915839,S,10606.853910,E,081924.000,A,A*50
!AIVDM,2,1,3,A,57ldpH000001TPI>220dn09D4p60Dl5>222222002PN536@WN04mCQ0H2iC0,0*2E
!AIVDM,2,2,3,A,D0H88888888,2*2B
$GNRMC,081925.000,A,0206.915837,S,10606.853909,E,0.000,126.03,040125,,E,A*11
$GNVTG,126.03,T,,M,0.000,N,0.000,K,A*25
$GNGGA,081925.000,0206.915837,S,10606.853909,E,1,19,0.72,45.915,M,0,M,,*7D
$GPGSA,A,3,02,03,04,07,08,09,17,21,,,,,1.37,0.72,1.17*03
$BDGSA,A,3,02,03,05,06,07,08,09,10,11,13,14,,1.37,0.72,1.17*16
$GNGLL,0206.915837,S,10606.853909,E,081925.000,A,A*57
$GNRMC,081926.000,A,0206.915835,S,10606.853908,E,0.000,126.03,040125,,E,A*11
$GNVTG,126.03,T,,M,0.000,N,0.000,K,A*25
$GNGGA,081926.000,0206.915835,S,10606.853908,E,1,19,0.72,45.920,M,0,M,,*7B
$GPGSA,A,3,02,03,04,07,08,09,17,21,,,,,1.37,0.72,1.17*03
$BDGSA,A,3,02,03,05,06,07,08,09,10,11,13,14,,1.37,0.72,1.17*16
$GNGLL,0206.915835,S,10606.853908,E,081926.000,A,A*57
$GNRMC,081927.000,A,0206.915834,S,10606.853908,E,0.000,126.03,040125,,E,A*11
$GNVTG,126.03,T,,M,0.000,N,0.000,K,A*25
$GNGGA,081927.000,0206.915834,S,10606.853908,E,1,19,0.72,45.925,M,0,M,,*7E
$GPGSA,A,3,02,03,04,07,08,09,17,21,,,,,1.37,0.72,1.17*03
$BDGSA,A,3,02,03,05,06,07,08,09,10,11,13,14,,1.37,0.72,1.17*16
$GNGLL,0206.915834,S,10606.853908,E,081927.000,A,A*57
$GNRMC,081928.000,A,0206.915833,S,10606.853907,E,0.000,126.03,040125,,E,A*16
$GNVTG,126.03,T,,M,0.000,N,0.000,K,A*25
$GNGGA,081928.000,0206.915833,S,10606.853907,E,1,19,0.72,45.930,M,0,M,,*7D
$GPGSA,A,3,02,03,04,07,08,09,17,21,,,,,1.37,0.72,1.17*03
$BDGSA,A,3,02,03,05,06,07,08,09,10,11,13,14,,1.37,0.72,1.17*16
$GPGSV,3,1,09,01,,,35,02,63,056,44,03,25,153,35,04,39,183,38*4B
$GPGSV,3,2,09,07,48,346,46,08,12,023,11,09,46,224,44,17,32,261,38*75
$GPGSV,3,3,09,21,42,045,29*4F
$BDGSV,3,1,12,02,63,268,40,03,84,087,40,04,28,090,00,05,35,270,32*62
$BDGSV,3,2,12,06,75,027,35,07,40,348,36,08,26,168,30,09,62,357,42*6E
!AIVDM,1,1,,B,17ldHq0P00WUl8KvkG@jeOvp0d0F,0*11
$BDGSV,3,3,12,10,42,330,36,11,46,016,36,13,27,178,33,14,18,159,27*64
$GNGLL,0206.915833,S,10606.853907,E,081928.000,A,A*50
$GNTXT,01,01,02,ANTSTATUS=OK*25
$GNRMC,081929.000,A,0206.915832,S,10606.853907,E,0.000,126.03,040125,,E,A*16
$GNVTG,126.03,T,,M,0.000,N,0.000,K,A*25
$GNGGA,081929.000,0206.915832,S,10606.853907,E,1,19,0.72,45.933,M,0,M,,*7E
$GPGSA,A,3,02,03,04,07,08,09,17,21,,,,,1.37,0.72,1.17*03
$BDGSA,A,3,02,03,05,06,07,08,09,10,11,13,14,,1.37,0.72,1.17*16
$GNGLL,0206.915832,S,10606.853907,E,081929.000,A,A*50
$GNRMC,081930.000,A,0206.915830,S,10606.853907,E,0.000,126.03,040125,,E,A*1C
$GNVTG,126.03,T,,M,0.000,N,0.000,K,A*25
$GNGGA,081930.000,0206.915830,S,10606.853907,E,1,19,0.72,45.937,M,0,M,,*70
$GPGSA,A,3,02,03,04,07,08,09,17,21,,,,,1.37,0.72,1.17*03
$BDGSA,A,3,02,03,05,06,07,08,09,10,11,13,14,,1.37,0.72,1.17*16
$GNGLL,0206.915830,S,10606.853907,E,081930.000,A,A*5A
$GNRMC,081931.000,A,0206.915830,S,10606.853906,E,0.000,126.03,040125,,E,A*1C
$GNVTG,126.03,T,,M,0.000,N,0.000,K,A*25
$GNGGA,081931.000,0206.915830,S,10606.853906,E,1,19,0.72,45.941,M,0,M,,*71
$GPGSA,A,3,02,03,04,07,08,09,17,21,,,,,1.37,0.72,1.17*03
$BDGSA,A,3,02,03,05,06,07,08,09,10,11,13,14,,1.37,0.72,1.17*16
$GNGLL,0206.915830,S,10606.853906,E,081931.000,A,A*5A
$GNRMC,081932.000,A,0206.915829,S,10606.853906,E,0.000,126.03,040125,,E,A*17
$GNVTG,126.03,T,,M,0.000,N,0.000,K,A*25
$GNGGA,081932.000,0206.915829,S,10606.853906,E,1,19,0.72,45.945,M,0,M,,*7E
$GPGSA,A,3,02,03,04,07,08,09,17,21,,,,,1.37,0.72,1.17*03
$BDGSA,A,3,02,03,05,06,07,08,09,10,11,13,14,,1.37,0.72,1.17*16
$GNGLL,0206.915829,S,10606.853906,E,081932.000,A,A*51
$GNRMC,081933.000,A,0206.915828,S,10606.853905,E,0.000,126.03,040125,,E,A*14
$GNVTG,126.03,T,,M,0.000,N,0.000,K,A*25
$GNGGA,081933.000,0206.915828,S,10606.853905,E,1,19,0.72,45.951,M,0,M,,*78
$GPGSA,A,3,02,03,04,07,08,09,17,21,,,,,1.37,0.72,1.17*03
$BDGSA,A,3,02,03,05,06,07,08,09,10,11,13,14,,1.37,0.72,1.17*16
$GPGSV,3,1,09,01,,,35,02,63,056,44,03,25,153,37,04,38,183,39*49
$GPGSV,3,2,09,07,48,346,46,08,11,023,09,09,46,224,45,17,32,261,39*7F
$GPGSV,3,3,09,21,42,045,28*4E
$BDGSV,3,1,12,02,63,268,40,03,84,087,40,04,28,090,00,05,35,270,32*62
$BDGSV,3,2,12,06,75,027,35,07,40,348,37,08,26,168,29,09,62,357,42*67
$BDGSV,3,3,12,10,42,330,37,11,46,016,37,13,27,178,34,14,18,159,27*63
$GNGLL,0206.915828,S,10606.853905,E,081933.000,A,A*52
$GNTXT,01,01,02,ANTSTATUS=OK*25
$GNRMC,081934.000,A,0206.915827,S,10606.853903,E,0.000,126.03,040125,,E,A*1A
$GNVTG,126.03,T,,M,0.000,N,0.000,K,A*25
$GNGGA,081934.000,0206.915827,S,10606.853903,E,1,19,0.72,45.957,M,0,M,,*70
$GPGSA,A,3,02,03,04,07,08,09,17,21,,,,,1.37,0.72,1.17*03
$BDGSA,A,3,02,03,05,06,07,08,09,10,11,13,14,,1.37,0.72,1.17*16
$GNGLL,0206.915827,S,10606.853903,E,081934.000,A,A*5C
$GNRMC,081935.000,A,0206.915826,S,10606.853902,E,0.000,126.03,040125,,E,A*1B
$GNVTG,126.03,T,,M,0.000,N,0.000,K,A*25
$GNGGA,081935.000,0206.915826,S,10606.853902,E,1,19,0.72,45.964,M,0,M,,*71
$GPGSA,A,3,02,03,04,07,08,09,17,21,,,,,1.37,0.72,1.17*03
$BDGSA,A,3,02,03,05,06,07,08,09,10,11,13,14,,1.37,0.72,1.17*16
$GNGLL,0206.915826,S,10606.853902,E,081935.000,A,A*5D
$GNRMC,081936.000,A,0206.915825,S,10606.853901,E,0.000,126.03,040125,,E,A*18
$GNVTG,126.03,T,,M,0.000,N,0.000,K,A*25
$GNGGA,081936.000,0206.915825,S,10606.853901,E,1,19,0.72,45.969,M,0,M,,*7F
$GPGSA,A,3,02,03,04,07,08,09,17,21,,,,,1.37,0.72,1.17*03
$BDGSA,A,3,02,03,05,06,07,08,09,10,11,13,14,,1.37,0.72,1.17*16
$GNGLL,0206.915825,S,10606.853901,E,081936.000,A,A*5E
$GNRMC,081937.000,A,0206.915824,S,10606.853900,E,0.000,126.03,040125,,E,A*19
$GNVTG,126.03,T,,M,0.000,N,0.000,K,A*25
$GNGGA,081937.000,0206.915824,S,10606.853900,E,1,19,0.72,45.978,M,0,M,,*7E
$GPGSA,A,3,02,03,04,07,08,09,17,21,,,,,1.37,0.72,1.17*03
$BDGSA,A,3,02,03,05,06,07,08,09,10,11,13,14,,1.37,0.72,1.17*16
$GNGLL,0206.915824,S,10606.853900,E,081937.000,A,A*5F
$GNRMC,081938.000,A,0206.915825,S,10606.853900,E,0.000,126.03,040125,,E,A*17
$GNVTG,126.03,T,,M,0.000,N,0.000,K,A*25
$GNGGA,081938.000,0206.915825,S,10606.853900,E,1,19,0.72,45.976,M,0,M,,*7E
$GPGSA,A,3,02,03,04,07,08,09,17,21,,,,,1.37,0.72,1.17*03
$BDGSA,A,3,02,03,05,06,07,08,09,10,11,13,14,,1.37,0.72,1.17*16
$GPGSV,3,1,09,01,,,36,02,63,056,44,03,25,153,36,04,38,183,39*4B
$GPGSV,3,2,09,07,48,346,46,08,11,023,09,09,46,223,44,17,32,262,38*7B
$GPGSV,3,3,09,21,42,045,29*4F
$BDGSV,3,1,12,02,63,268,40,03,84,087,40,04,28,090,00,05,35,270,32*62
$BDGSV,3,2,12,06,75,027,35,07,40,348,36,08,26,168,30,09,62,357,42*6E
$BDGSV,3,3,12,10,42,330,36,11,45,016,35,13,27,178,33,14,18,159,27*64
$GNGLL,0206.915825,S,10606.853900,E,081938.000,A,A*51
$GNTXT,01,01,02,ANTSTATUS=OK*25
$GNRMC,081939.000,A,0206.915825,S,10606.853901,E,0.000,126.03,040125,,E,A*17
!AIVDM,1,1,,A,17ldHq0P00WUl8OvkG?jeOw>0`Fw,0*65
$GNVTG,126.03,T,,M,0.000,N,0.000,K,A*25
$GNGGA,081939.000,0206.915825,S,10606.853901,E,1,19,0.72,45.972,M,0,M,,*7A
$GPGSA,A,3,02,03,04,07,08,09,17,21,,,,,1.37,0.72,1.17*03
$BDGSA,A,3,02,03,05,06,07,08,09,10,11,13,14,,1.37,0.72,1.17*16
$GNGLL,0206.915825,S,10606.853901,E,081939.000,A,A*51
$GNRMC,081940.000,A,0206.915824,S,10606.853900,E,0.000,126.03,040125,,E,A*19
$GNVTG,126.03,T,,M,0.000,N,0.000,K,A*25
$GNGGA,081940.000,0206.915824,S,10606.853900,E,1,19,0.72,45.978,M,0,M,,*7E
$GPGSA,A,3,02,03,04,07,08,09,17,21,,,,,1.37,0.72,1.17*03
$BDGSA,A,3,02,03,05,06,07,08,09,10,11,13,14,,1.37,0.72,1.17*16
$GNGLL,0206.915824,S,10606.853900,E,081940.000,A,A*5F
$GNRMC,081941.000,A,0206.915822,S,10606.853900,E,0.000,126.03,040125,,E,A*1E
$GNVTG,126.03,T,,M,0.000,N,0.000,K,A*25
$GNGGA,081941.000,0206.915822,S,10606.853900,E,1,19,0.72,45.983,M,0,M,,*7D
$GPGSA,A,3,02,03,04,07,08,09,17,21,,,,,1.37,0.72,1.17*03
$BDGSA,A,3,02,03,05,06,07,08,09,10,11,13,14,,1.37,0.72,1.17*16
$GNGLL,0206.915822,S,10606.853900,E,081941.000,A,A*58
$GNRMC,081942.000,A,0206.915821,S,10606.853900,E,0.000,126.03,040125,,E,A*1E
$GNVTG,126.03,T,,M,0.000,N,0.000,K,A*25
$GNGGA,081942.000,0206.915821,S,10606.853900,E,1,19,0.72,45.991,M,0,M,,*7E
$GPGSA,A,3,02,03,04,07,08,09,17,21,,,,,1.37,0.72,1.17*03
$BDGSA,A,3,02,03,05,06,07,08,09,10,11,13,14,,1.37,0.72,1.17*16
$GNGLL,0206.915821,S,10606.853900,E,081942.000,A,A*58
$GNRMC,081943.000,A,0206.915819,S,10606.853899,E,0.000,126.03,040125,,E,A*15
$GNVTG,126.03,T,,M,0.000,N,0.000,K,A*25
$GNGGA,081943.000,0206.915819,S,10606.853899,E,1,19,0.72,45.997,M,0,M,,*73
$GPGSA,A,3,02,03,04,07,08,09,17,21,,,,,1.37,0.72,1.17*03
$BDGSA,A,3,02,03,05,06,07,08,09,10,11,13,14,,1.37,0.72,1.17*16
$GPGSV,3,1,09,01,,,36,02,63,056,44,03,25,153,35,04,38,183,38*49
$GPGSV,3,2,09,07,48,346,47,08,11,023,14,09,46,223,45,17,32,262,39*76
$GPGSV,3,3,09,21,42,045,31*46
$BDGSV,3,1,12,02,63,268,40,03,84,087,39,04,28,090,00,05,35,270,33*6D
$BDGSV,3,2,12,06,75,027,35,07,40,348,37,08,26,168,29,09,62,357,42*67
$BDGSV,3,3,12,10,42,330,37,11,45,016,36,13,27,178,33,14,18,159,26*67
$GNGLL,0206.915819,S,10606.853899,E,081943.000,A,A*53
$GNTXT,01,01,02,ANTSTATUS=OK*25
$GNRMC,081944.000,A,0206.915818,S,10606.853898,E,0.000,126.03,040125,,E,A*12
$GNVTG,126.03,T,,M,0.000,N,0.000,K,A*25
$GNGGA,081944.000,0206.915818,S,10606.853898,E,1,19,0.72,46.003,M,0,M,,*73
$GPGSA,A,3,02,03,04,07,08,09,17,21,,,,,1.37,0.72,1.17*03
$BDGSA,A,3,02,03,05,06,07,08,09,10,11,13,14,,1.37,0.72,1.17*16
$GNGLL,0206.915818,S,10606.853898,E,081944.000,A,A*54
$GNRMC,081945.000,A,0206.915816,S,10606.853897,E,0.000,126.03,040125,,E,A*12
$GNVTG,126.03,T,,M,0.000,N,0.000,K,A*25
$GNGGA,081945.000,0206.915816,S,10606.853897,E,1,19,0.72,46.010,M,0,M,,*71
$GPGSA,A,3,02,03,04,07,08,09,17,21,,,,,1.37,0.72,1.17*03
$BDGSA,A,3,02,03,05,06,07,08,09,10,11,13,14,,1.37,0.72,1.17*16
$GNGLL,0206.915816,S,10606.853897,E,081945.000,A,A*54
$GNRMC,081946.000,A,0206.915814,S,10606.853896,E,0.000,126.03,040125,,E,A*12
$GNVTG,126.03,T,,M,0.000,N,0.000,K,A*25
$GNGGA,081946.000,0206.915814,S,10606.853896,E,1,19,0.71,46.016,M,0,M,,*74
$GPGSA,A,3,02,03,04,07,08,09,17,21,,,,,1.37,0.71,1.17*00
$BDGSA,A,3,02,03,05,06,07,08,09,10,11,13,14,,1.37,0.71,1.17*15
$GNGLL,0206.915814,S,10606.853896,E,081946.000,A,A*54
$GNRMC,081947.000,A,0206.915813,S,10606.853895,E,0.000,126.03,040125,,E,A*17
$GNVTG,126.03,T,,M,0.000,N,0.000,K,A*25
$GNGGA,081947.000,0206.915813,S,10606.853895,E,1,19,0.71,46.023,M,0,M,,*77
$GPGSA,A,3,02,03,04,07,08,09,17,21,,,,,1.37,0.71,1.17*00
$BDGSA,A,3,02,03,05,06,07,08,09,10,11,13,14,,1.37,0.71,1.17*15
$GNGLL,0206.915813,S,10606.853895,E,081947.000,A,A*51
$GNRMC,081948.000,A,0206.915811,S,10606.853895,E,0.000,126.03,040125,,E,A*1A
$GNVTG,126.03,T,,M,0.000,N,0.000,K,A*25
$GNGGA,081948.000,0206.915811,S,10606.853895,E,1,19,0.71,46.029,M,0,M,,*70
$GPGSA,A,3,02,03,04,07,08,09,17,21,,,,,1.37,0.71,1.17*00
$BDGSA,A,3,02,03,05,06,07,08,09,10,11,13,14,,1.37,0.71,1.17*15
$GPGSV,3,1,09,01,,,35,02,63,056,44,03,25,153,34,04,38,183,39*4A
$GPGSV,3,2,09,07,48,346,46,08,11,023,15,09,45,223,45,17,32,262,40*7B
$GPGSV,3,3,09,21,42,045,31*46
$BDGSV,3,1,12,02,63,268,40,03,84,087,40,04,28,090,00,05,35,270,32*62
$BDGSV,3,2,12,06,75,027,35,07,40,348,37,08,26,168,28,09,62,357,41*65
$BDGSV,3,3,12,10,42,330,37,11,45,016,37,13,27,178,34,14,18,159,24*63
$GNGLL,0206.915811,S,10606.853895,E,081948.000,A,A*5C
$GNTXT,01,01,02,ANTSTATUS=OK*25
$GNRMC,081949.000,A,0206.915810,S,10606.853895,E,0.000,126.03,040125,,E,A*1A
$GNVTG,126.03,T,,M,0.000,N,0.000,K,A*25
$GNGGA,081949.000,0206.915810,S,10606.853895,E,1,19,0.71,46.036,M,0,M,,*7E
$GPGSA,A,3,02,03,04,07,08,09,17,21,,,,,1.37,0.71,1.17*00
$BDGSA,A,3,02,03,05,06,07,08,09,10,11,13,14,,1.37,0.71,1.17*15
$GNGLL,0206.915810,S,10606.853895,E,081949.000,A,A*5C
!AIVDM,1,1,,B,17ldHq0P00WUl8OvkG?BeOwR0l0F,0*69
!AIVDM,2,1,4,B,57ldpH000001TPI>220dn09D4p60Dl5>222222002PN536@WN04mCQ0H2iC0,0*2A
!AIVDM,2,2,4,B,D0H88888880,2*27
$GNRMC,081950.000,A,0206.915809,S,10606.853894,E,0.000,126.03,040125,,E,A*1B
$GNVTG,126.03,T,,M,0.000,N,0.000,K,A*25
$GNGGA,081950.000,0206.915809,S,10606.853894,E,1,19,0.71,46.044,M,0,M,,*7A
$GPGSA,A,3,02,03,04,07,08,09,17,21,,,,,1.37,0.71,1.17*00
$BDGSA,A,3,02,03,05,06,07,08,09,10,11,13,14,,1.37,0.71,1.17*15
$GNGLL,0206.915809,S,10606.853894,E,081950.000,A,A*5D
$GNRMC,081951.000,A,0206.915808,S,10606.853893,E,0.000,126.03,040125,,E,A*1C
$GNVTG,126.03,T,,M,0.000,N,0.000,K,A*25
$GNGGA,081951.000,0206.915808,S,10606.853893,E,1,19,0.71,46.051,M,0,M,,*79
$GPGSA,A,3,02,03,04,07,08,09,17,21,,,,,1.37,0.71,1.17*00
$BDGSA,A,3,02,03,05,06,07,08,09,10,11,13,14,,1.37,0.71,1.17*15
$GNGLL,0206.915808,S,10606.853893,E,081951.000,A,A*5A
$GNRMC,081952.000,A,0206.915807,S,10606.853893,E,0.000,126.03,040125,,E,A*10
$GNVTG,126.03,T,,M,0.000,N,0.000,K,A*25
$GNGGA,081952.000,0206.915807,S,10606.853893,E,1,19,0.71,46.057,M,0,M,,*73
$GPGSA,A,3,02,03,04,07,08,09,17,21,,,,,1.37,0.71,1.17*00
$BDGSA,A,3,02,03,05,06,07,08,09,10,11,13,14,,1.37,0.71,1.17*15
$GNGLL,0206.915807,S,10606.853893,E,081952.000,A,A*56
$GNRMC,081953.000,A,0206.915806,S,10606.853892,E,0.000,126.03,040125,,E,A*11
$GNVTG,126.03,T,,M,0.000,N,0.000,K,A*25
$GNGGA,081953.000,0206.915806,S,10606.853892,E,1,19,0.71,46.064,M,0,M,,*72
$GPGSA,A,3,02,03,04,07,08,09,17,21,,,,,1.37,0.71,1.17*00
$BDGSA,A,3,02,03,05,06,07,08,09,10,11,13,14,,1.37,0.71,1.17*15
$GPGSV,3,1,09,01,,,35,02,63,056,44,03,25,153,34,04,38,183,38*4B
$GPGSV,3,2,09,07,48,346,46,08,11,023,12,09,45,223,45,17,32,262,40*7C
$GPGSV,3,3,09,21,42,045,32*45
$BDGSV,3,1,12,02,63,268,40,03,84,087,40,04,28,090,00,05,35,270,33*63
$BDGSV,3,2,12,06,75,027,36,07,40,348,38,08,26,168,27,09,62,357,42*65
$BDGSV,3,3,12,10,42,330,36,11,45,016,36,13,27,177,34,14,18,159,27*6F
$GNGLL,0206.915806,S,10606.853892,E,081953.000,A,A*57
$GNTXT,01,01,02,ANTSTATUS=OK*25
$GNRMC,081954.000,A,0206.915806,S,10606.853892,E,0.000,126.03,040125,,E,A*16
$GNVTG,126.03,T,,M,0.000,N,0.000,K,A*25
$GNGGA,081954.000,0206.915806,S,10606.853892,E,1,19,0.71,46.068,M,0,M,,*79
$GPGSA,A,3,02,03,04,07,08,09,17,21,,,,,1.37,0.71,1.17*00
$BDGSA,A,3,02,03,05,06,07,08,09,10,11,13,14,,1.37,0.71,1.17*15
$GNGLL,0206.915806,S,10606.853892,E,081954.000,A,A*50
$GNRMC,081955.000,A,0206.915805,S,10606.853892,E,0.000,126.03,040125,,E,A*14
$GNVTG,126.03,T,,M,0.000,N,0.000,K,A*25
$GNGGA,081955.000,0206.915805,S,10606.853892,E,1,19,0.71,46.072,M,0,M,,*70
$GPGSA,A,3,02,03,04,07,08,09,17,21,,,,,1.37,0.71,1.17*00
$BDGSA,A,3,02,03,05,06,07,08,09,10,11,13,14,,1.37,0.71,1.17*15
$GNGLL,0206.915805,S,10606.853892,E,081955.000,A,A*52
$GNRMC,081956.000,A,0206.915804,S,10606.853892,E,0.000,126.03,040125,,E,A*16
$GNVTG,126.03,T,,M,0.000,N,0.000,K,A*25
$GNGGA,081956.000,0206.915804,S,10606.853892,E,1,19,0.71,46.075,M,0,M,,*75
$GPGSA,A,3,02,03,04,07,08,09,17,21,,,,,1.37,0.71,1.17*00
$BDGSA,A,3,02,03,05,06,07,08,09,10,11,13,14,,1.37,0.71,1.17*15
$GNGLL,0206.915804,S,10606.853892,E,081956.000,A,A*50
$GNRMC,081957.000,A,0206.915804,S,10606.853892,E,0.000,126.03,040125,,E,A*17
$GNVTG,126.03,T,,M,0.000,N,0.000,K,A*25
$GNGGA,081957.000,0206.915804,S,10606.853892,E,1,19,0.71,46.079,M,0,M,,*78
$GPGSA,A,3,02,03,04,07,08,09,17,21,,,,,1.37,0.71,1.17*00
$BDGSA,A,3,02,03,05,06,07,08,09,10,11,13,14,,1.37,0.71,1.17*15
$GNGLL,0206.915804,S,10606.853892,E,081957.000,A,A*51
$GNRMC,081958.000,A,0206.915803,S,10606.853892,E,0.000,126.03,040125,,E,A*1F
$GNVTG,126.03,T,,M,0.000,N,0.000,K,A*25
$GNGGA,081958.000,0206.915803,S,10606.853892,E,1,19,0.71,46.084,M,0,M,,*72
$GPGSA,A,3,02,03,04,07,08,09,17,21,,,,,1.37,0.71,1.17*00
$BDGSA,A,3,02,03,05,06,07,08,09,10,11,13,14,,1.37,0.71,1.17*15
$GPGSV,3,1,09,01,,,35,02,63,056,43,03,25,153,34,04,38,183,38*4C
$GPGSV,3,2,09,07,48,346,46,08,11,023,08,09,45,223,44,17,32,262,40*76
$GPGSV,3,3,09,21,42,045,32*45
$BDGSV,3,1,12,02,63,268,40,03,84,087,40,04,28,090,00,05,35,270,33*63
$BDGSV,3,2,12,06,75,027,36,07,40,348,37,08,26,168,27,09,62,357,42*6A
$BDGSV,3,3,12,10,42,330,36,11,45,016,36,13,27,177,35,14,18,159,23*6A
$GNGLL,0206.915803,S,10606.853892,E,081958.000,A,A*59
$GNTXT,01,01,02,ANTSTATUS=OK*25
$GNRMC,081959.000,A,0206.915802,S,10606.853892,E,0.000,126.03,040125,,E,A*1F
$GNVTG,126.03,T,,M,0.000,N,0.000,K,A*25
$GNGGA,081959.000,0206.915802,S,10606.853892,E,1,19,0.71,46.088,M,0,M,,*7E
!AIVDM,1,1,,A,17ldHq0P00WUl8cvkG>BeOwn0d0F,0*73
$GPGSA,A,3,02,03,04,07,08,09,17,21,,,,,1.37,0.71,1.17*00
$BDGSA,A,3,02,03,05,06,07,08,09,10,11,13,14,,1.37,0.71,1.17*15
$GNGLL,0206.915802,S,10606.853892,E,081959.000,A,A*59
$GNRMC,082000.000,A,0206.915801,S,10606.853893,E,0.000,126.03,040125,,E,A*1B
$GNVTG,126.03,T,,M,0.000,N,0.000,K,A*25
$GNGGA,082000.000,0206.915801,S,10606.853893,E,1,19,0.71,46.092,M,0,M,,*71
$GPGSA,A,3,02,03,04,07,08,09,17,21,,,,,1.37,0.71,1.17*00
$BDGSA,A,3,02,03,05,06,07,08,09,10,11,13,14,,1.37,0.71,1.17*15
$GNGLL,0206.915801,S,10606.853893,E,082000.000,A,A*5D
$GNRMC,082001.000,A,0206.915801,S,10606.853893,E,0.000,126.03,040125,,E,A*1A
$GNVTG,126.03,T,,M,0.000,N,0.000,K,A*25
$GNGGA,082001.000,0206.915801,S,10606.853893,E,1,19,0.71,46.096,M,0,M,,*74
$GPGSA,A,3,02,03,04,07,08,09,17,21,,,,,1.37,0.71,1.17*00
$BDGSA,A,3,02,03,05,06,07,08,09,10,11,13,14,,1.37,0.71,1.17*15
$GNGLL,0206.915801,S,10606.853893,E,082001.000,A,A*5C
$GNRMC,082002.000,A,0206.915801,S,10606.853894,E,0.000,126.03,040125,,E,A*1E
$GNVTG,126.03,T,,M,0.000,N,0.000,K,A*25
$GNGGA,082002.000,0206.915801,S,10606.853894,E,1,19,0.71,46.100,M,0,M,,*7E
$GPGSA,A,3,02,03,04,07,08,09,17,21,,,,,1.37,0.71,1.17*00
$BDGSA,A,3,02,03,05,06,07,08,09,10,11,13,14,,1.37,0.71,1.17*15
$GNGLL,0206.915801,S,10606.853894,E,082002.000,A,A*58
$GNRMC,082003.000,A,0206.915801,S,10606.853895,E,0.000,126.03,040125,,E,A*1E
$GNVTG,126.03,T,,M,0.000,N,0.000,K,A*25
$GNGGA,082003.000,0206.915801,S,10606.853895,E,1,19,0.71,46.102,M,0,M,,*7C
$GPGSA,A,3,02,03,04,07,08,09,17,21,,,,,1.37,0.71,1.17*00
$BDGSA,A,3,02,03,05,06,07,08,09,10,11,13,14,,1.37,0.71,1.17*15
$GPGSV,3,1,09,01,,,35,02,63,056,42,03,25,153,35,04,38,183,38*4C
$GPGSV,3,2,09,07,48,346,46,08,11,023,12,09,45,223,44,17,32,262,40*7D
$GPGSV,3,3,09,21,42,045,32*45
$BDGSV,3,1,12,02,63,268,40,03,84,087,40,04,28,090,00,05,35,270,32*62
$BDGSV,3,2,12,06,75,027,36,07,40,348,37,08,26,168,30,09,62,357,41*6F
$BDGSV,3,3,12,10,42,330,37,11,45,016,35,13,27,177,34,14,18,159,23*69
$GNGLL,0206.915801,S,10606.853895,E,082003.000,A,A*58
$GNTXT,01,01,02,ANTSTATUS=OK*25
$GNRMC,082004.000,A,0206.915801,S,10606.853896,E,0.000,126.03,040125,,E,A*1A
$GNVTG,126.03,T,,M,0.000,N,0.000,K,A*25
$GNGGA,082004.000,0206.915801,S,10606.853896,E,1,19,0.71,46.105,M,0,M,,*7F
$GPGSA,A,3,02,03,04,07,08,09,17,21,,,,,1.37,0.71,1.17*00
$BDGSA,A,3,02,03,05,06,07,08,09,10,11,13,14,,1.37,0.71,1.17*15
$GNGLL,0206.915801,S,10606.853896,E,082004.000,A,A*5C
$GNRMC,082005.000,A,0206.915800,S,10606.853896,E,0.000,126.03,040125,,E,A*1A
$GNVTG,126.03,T,,M,0.000,N,0.000,K,A*25
$GNGGA,082005.000,0206.915800,S,10606.853896,E,1,19,0.71,46.108,M,0,M,,*72
$GPGSA,A,3,02,03,04,07,08,09,17,21,,,,,1.37,0.71,1.17*00
$BDGSA,A,3,02,03,05,06,07,08,09,10,11,13,14,,1.37,0.71,1.17*15
$GNGLL,0206.915800,S,10606.853896,E,082005.000,A,A*5C
$GNRMC,082006.000,A,0206.915800,S,10606.853896,E,0.000,126.03,040125,,E,A*19
$GNVTG,126.03,T,,M,0.000,N,0.000,K,A*25
$GNGGA,082006.000,0206.915800,S,10606.853896,E,1,19,0.71,46.112,M,0,M,,*7A
$GPGSA,A,3,02,03,04,07,08,09,17,21,,,,,1.37,0.71,1.17*00
$BDGSA,A,3,02,03,05,06,07,08,09,10,11,13,14,,1.37,0.71,1.17*15
$GNGLL,0206.915800,S,10606.853896,E,082006.000,A,A*5F
!AIVDM,2,1,5,A,57ldpH000001TPI>220dn09D4p60Dl5>222222002PN536@WN04mCQ0H2iC0,0*28
!AIVDM,2,2,5,A,D0H88888880,2*25
$GNRMC,082007.000,A,0206.915801,S,10606.853897,E,0.000,126.03,040125,,E,A*18
$GNVTG,126.03,T,,M,0.000,N,0.000,K,A*25
$GNGGA,082007.000,0206.915801,S,10606.853897,E,1,19,0.71,46.117,M,0,M,,*7E
$GPGSA,A,3,02,03,04,07,08,09,17,21,,,,,1.37,0.71,1.17*00
$BDGSA,A,3,02,03,05,06,07,08,09,10,11,13,14,,1.37,0.71,1.17*15
$GNGLL,0206.915801,S,10606.853897,E,082007.000,A,A*5E
$GNRMC,082008.000,A,0206.915801,S,10606.853897,E,0.000,126.03,040125,,E,A*17
$GNVTG,126.03,T,,M,0.000,N,0.000,K,A*25
$GNGGA,082008.000,0206.915801,S,10606.853897,E,1,19,0.71,46.120,M,0,M,,*75
$GPGSA,A,3,02,03,04,07,08,09,17,21,,,,,1.37,0.71,1.17*00
$BDGSA,A,3,02,03,05,06,07,08,09,10,11,13,14,,1.37,0.71,1.17*15
$GPGSV,3,1,09,01,,,34,02,63,056,42,03,25,153,35,04,38,183,39*4C
$GPGSV,3,2,09,07,48,346,46,08,11,023,10,09,45,223,44,17,32,262,39*71
$GPGSV,3,3,09,21,42,045,32*45
$BDGSV,3,1,12,02,63,268,39,03,84,087,40,04,28,090,00,05,35,270,32*6C
$BDGSV,3,2,12,06,75,027,35,07,40,348,37,08,26,168,29,09,62,357,41*64
$BDGSV,3,3,12,10,42,330,36,11,45,016,35,13,27,177,33,14,18,159,24*68
$GNGLL,0206.915801,S,10606.853897,E,082008.000,A,A*51
$GNTXT,01,01,02,ANTSTATUS=OK*25
$GNRMC,082009.000,A,0206.915801,S,10606.853897,E,0.000,126.03,040125,,E,A*16
$GNVTG,126.03,T,,M,0.000,N,0.000,K,A*25
$GNGGA,082009.000,0206.915801,S,10606.853897,E,1,19,0.71,46.125,M,0,M,,*71
$GPGSA,A,3,02,03,04,07,08,09,17,21,,,,,1.37,0.71,1.17*00
$BDGSA,A,3,02,03,05,06,07,08,09,10,11,13,14,,1.37,0.71,1.17*15
$GNGLL,0206.915801,S,10606.853897,E,082009.000,A,A*50
!AIVDM,1,1,,B,17ldHq0P00WUl8cvkG>BeOvD0`5s,0*6F
$GNRMC,082010.000,A,0206.915800,S,10606.853897,E,0.000,126.03,040125,,E,A*1F
$GNVTG,126.03,T,,M,0.000,N,0.000,K,A*25
$GNGGA,082010.000,0206.915800,S,10606.853897,E,1,19,0.71,46.127,M,0,M,,*7A
$GPGSA,A,3,02,03,04,07,08,09,17,21,,,,,1.37,0.71,1.17*00
$BDGSA,A,3,02,03,05,06,07,08,09,10,11,13,14,,1.37,0.71,1.17*15
$GNGLL,0206.915800,S,10606.853897,E,082010.000,A,A*59
$GNRMC,082011.000,A,0206.915800,S,10606.853897,E,0.000,126.03,040125,,E,A*1E
$GNVTG,126.03,T,,M,0.000,N,0.000,K,A*25
$GNGGA,082011.000,0206.915800,S,10606.853897,E,1,19,0.71,46.130,M,0,M,,*7D
$GPGSA,A,3,02,03,04,07,08,09,17,21,,,,,1.37,0.71,1.17*00
$BDGSA,A,3,02,03,05,06,07,08,09,10,11,13,14,,1.37,0.71,1.17*15
$GNGLL,0206.915800,S,10606.853897,E,082011.000,A,A*58
$GNRMC,082012.000,A,0206.915803,S,10606.853899,E,0.000,126.03,040125,,E,A*10
$GNVTG,126.03,T,,M,0.000,N,0.000,K,A*25
$GNGGA,082012.000,0206.915803,S,10606.853899,E,1,19,0.71,46.121,M,0,M,,*73
$GPGSA,A,3,02,03,04,07,08,09,17,21,,,,,1.37,0.71,1.17*00
$BDGSA,A,3,02,03,05,06,07,08,09,10,11,13,14,,1.37,0.71,1.17*15
$GNGLL,0206.915803,S,10606.853899,E,082012.000,A,A*56
$GNRMC,082013.000,A,0206.915807,S,10606.853901,E,0.000,126.03,040125,,E,A*15
$GNVTG,126.03,T,,M,0.000,N,0.000,K,A*25
$GNGGA,082013.000,0206.915807,S,10606.853901,E,1,19,0.71,46.113,M,0,M,,*77
$GPGSA,A,3,02,03,04,07,08,09,17,21,,,,,1.37,0.71,1.17*00
$BDGSA,A,3,02,03,05,06,07,08,09,10,11,13,14,,1.37,0.71,1.17*15
$GPGSV,3,1,09,01,,,34,02,63,056,42,03,25,153,34,04,38,183,39*4D
$GPGSV,3,2,09,07,48,346,46,08,11,023,07,09,45,223,44,17,32,262,40*79
$GPGSV,3,3,09,21,42,045,33*44
$BDGSV,3,1,12,02,63,268,39,03,84,087,40,04,28,090,00,05,35,270,32*6C
$BDGSV,3,2,12,06,75,027,36,07,40,348,37,08,26,168,27,09,62,357,41*69
$BDGSV,3,3,12,10,42,330,36,11,45,016,35,13,27,177,34,14,18,159,22*69
$GNGLL,0206.915807,S,10606.853901,E,082013.000,A,A*53
$GNTXT,01,01,02,ANTSTATUS=OK*25
$GNRMC,082014.000,A,0206.915809,S,10606.853904,E,0.000,126.03,040125,,E,A*19
$GNVTG,126.03,T,,M,0.000,N,0.000,K,A*25
$GNGGA,082014.000,0206.915809,S,10606.853904,E,1,19,0.71,46.103,M,0,M,,*7A
$GPGSA,A,3,02,03,04,07,08,09,17,21,,,,,1.37,0.71,1.17*00
$BDGSA,A,3,02,03,05,06,07,08,09,10,11,13,14,,1.37,0.71,1.17*15
$GNGLL,0206.915809,S,10606.853904,E,082014.000,A,A*5F
!AIVDM,2,1,6,B,57lum:p000010l9B220mBq@4l58U<d60484@V2005`955w>90:T;PS0CH888,0*2F
!AIVDM,2,2,6,B,88888888880,2*21
$GNRMC,082015.000,A,0206.915811,S,10606.853906,E,0.000,126.03,040125,,E,A*13
$GNVTG,126.03,T,,M,0.000,N,0.000,K,A*25
$GNGGA,082015.000,0206.915811,S,10606.853906,E,1,19,0.71,46.093,M,0,M,,*78
$GPGSA,A,3,02,03,04,07,08,09,17,21,,,,,1.37,0.71,1.17*00
$BDGSA,A,3,02,03,05,06,07,08,09,10,11,13,14,,1.37,0.71,1.17*15
$GNGLL,0206.915811,S,10606.853906,E,082015.000,A,A*55
$GNRMC,082016.000,A,0206.915814,S,10606.853908,E,0.000,126.03,040125,,E,A*1B
$GNVTG,126.03,T,,M,0.000,N,0.000,K,A*25
$GNGGA,082016.000,0206.915814,S,10606.853908,E,1,19,0.71,46.084,M,0,M,,*76
$GPGSA,A,3,02,03,04,07,08,09,17,21,,,,,1.37,0.71,1.17*00
$BDGSA,A,3,02,03,05,06,07,08,09,10,11,13,14,,1.37,0.71,1.17*15
$GNGLL,0206.915814,S,10606.853908,E,082016.000,A,A*5D
$GNRMC,082017.000,A,0206.915817,S,10606.853910,E,0.000,126.03,040125,,E,A*10
$GNVTG,126.03,T,,M,0.000,N,0.000,K,A*25
$GNGGA,082017.000,0206.915817,S,10606.853910,E,1,19,0.71,46.078,M,0,M,,*7E
$GPGSA,A,3,02,03,04,07,08,09,17,21,,,,,1.37,0.71,1.17*00
$BDGSA,A,3,02,03,05,06,07,08,09,10,11,13,14,,1.37,0.71,1.17*15
$GNGLL,0206.915817,S,10606.853910,E,082017.000,A,A*56
$GNRMC,082018.000,A,0206.915819,S,10606.853910,E,0.000,126.03,040125,,E,A*11
$GNVTG,126.03,T,,M,0.000,N,0.000,K,A*25
$GNGGA,082018.000,0206.915819,S,10606.853910,E,1,19,0.71,46.083,M,0,M,,*7B
$GPGSA,A,3,02,03,04,07,08,09,17,21,,,,,1.37,0.71,1.17*00
!AIVDM,1,1,,B,37ldpH1P007UmCIvk:5c>wvU2000,0*6C
$BDGSA,A,3,02,03,05,06,07,08,09,10,11,13,14,,1.37,0.71,1.17*15
$GPGSV,3,1,09,01,,,36,02,63,056,42,03,25,153,34,04,38,183,39*4F
$GPGSV,3,2,09,07,48,346,46,08,11,023,12,09,45,223,44,17,32,262,39*73
$GPGSV,3,3,09,21,42,045,33*44
$BDGSV,3,1,12,02,63,268,39,03,84,087,40,04,28,090,00,05,35,270,33*6D
$BDGSV,3,2,12,06,75,027,35,07,40,348,37,08,26,168,27,09,62,357,41*6A
$BDGSV,3,3,12,10,42,330,36,11,45,016,35,13,27,177,34,14,18,159,22*69
$GNGLL,0206.915819,S,10606.853910,E,082018.000,A,A*57
!AIVDM,1,1,,A,17ldHq0P00WUl8evkG>BeOvT0PS<,0*63
$GNTXT,01,01,02,ANTSTATUS=OK*25
$GNRMC,082019.000,A,0206.915821,S,10606.853912,E,0.000,126.03,040125,,E,A*19
$GNVTG,126.03,T,,M,0.000,N,0.000,K,A*25
$GNGGA,082019.000,0206.915821,S,10606.853912,E,1,19,0.71,46.077,M,0,M,,*78
$GPGSA,A,3,02,03,04,07,08,09,17,21,,,,,1.37,0.71,1.17*00
$BDGSA,A,3,02,03,05,06,07,08,09,10,11,13,14,,1.37,0.71,1.17*15
$GNGLL,0206.915821,S,10606.853912,E,082019.000,A,A*5F
$GNRMC,082020.000,A,0206.915824,S,10606.853912,E,0.000,126.03,040125,,E,A*16
$GNVTG,126.03,T,,M,0.000,N,0.000,K,A*25
$GNGGA,082020.000,0206.915824,S,10606.853912,E,1,19,0.71,46.071,M,0,M,,*71
$GPGSA,A,3,02,03,04,07,08,09,17,21,,,,,1.37,0.71,1.17*00
$BDGSA,A,3,02,03,05,06,07,08,09,10,11,13,14,,1.37,0.71,1.17*15
$GNGLL,0206.915824,S,10606.853912,E,082020.000,A,A*50
$GNRMC,082021.000,A,0206.915826,S,10606.853914,E,0.000,126.03,040125,,E,A*13
$GNVTG,126.03,T,,M,0.000,N,0.000,K,A*25
$GNGGA,082021.000,0206.915826,S,10606.853914,E,1,19,0.71,46.064,M,0,M,,*70
$GPGSA,A,3,02,03,04,07,08,09,17,21,,,,,1.37,0.71,1.17*00
$BDGSA,A,3,02,03,05,06,07,08,09,10,11,13,14,,1.37,0.71,1.17*15
$GNGLL,0206.915826,S,10606.853914,E,082021.000,A,A*55
$GNRMC,082022.000,A,0206.915825,S,10606.853915,E,0.000,126.03,040125,,E,A*12
$GNVTG,126.03,T,,M,0.000,N,0.000,K,A*25
$GNGGA,082022.000,0206.915825,S,10606.853915,E,1,19,0.71,46.061,M,0,M,,*74
$GPGSA,A,3,02,03,04,07,08,09,17,21,,,,,1.37,0.71,1.17*00
!AIVDM,2,1,7,B,57ldpH000001TPI>220dn09D4p60Dl5>222222002PN536@WN04mCQ0H2iC0,0*29
!AIVDM,2,2,7,B,D0H88888888,2*2C
$BDGSA,A,3,02,03,05,06,07,08,09,10,11,13,14,,1.37,0.71,1.17*15
$GNGLL,0206.915825,S,10606.853915,E,082022.000,A,A*54
$GNRMC,082023.000,A,0206.915825,S,10606.853916,E,0.000,126.03,040125,,E,A*10
$GNVTG,126.03,T,,M,0.000,N,0.000,K,A*25
$GNGGA,082023.000,0206.915825,S,10606.853916,E,1,19,0.71,46.061,M,0,M,,*76
$GPGSA,A,3,02,03,04,07,08,09,17,21,,,,,1.37,0.71,1.17*00
$BDGSA,A,3,02,03,05,06,07,08,09,10,11,13,14,,1.37,0.71,1.17*15
$GPGSV,3,1,09,01,,,36,02,63,056,42,03,25,153,34,04,38,183,39*4F
$GPGSV,3,2,09,07,48,346,46,08,11,023,11,09,45,223,44,17,32,262,39*70
$GPGSV,3,3,09,21,42,045,32*45
$BDGSV,3,1,12,02,63,268,39,03,84,087,41,04,28,090,00,05,35,270,32*6D
$BDGSV,3,2,12,06,75,027,37,07,40,348,37,08,26,168,30,09,62,357,42*6D
$BDGSV,3,3,12,10,42,330,36,11,45,016,35,13,27,177,33,14,18,159,18*67
$GNGLL,0206.915825,S,10606.853916,E,082023.000,A,A*56
$GNTXT,01,01,02,ANTSTATUS=OK*25
$GNRMC,082024.000,A,0206.915825,S,10606.853916,E,0.000,126.03,040125,,E,A*17
$GNVTG,126.03,T,,M,0.000,N,0.000,K,A*25
$GNGGA,082024.000,0206.915825,S,10606.853916,E,1,19,0.71,46.065,M,0,M,,*75
$GPGSA,A,3,02,03,04,07,08,09,17,21,,,,,1.37,0.71,1.17*00
$BDGSA,A,3,02,03,05,06,07,08,09,10,11,13,14,,1.37,0.71,1.17*15
$GNGLL,0206.915825,S,10606.853916,E,082024.000,A,A*51
$GNRMC,082025.000,A,0206.915826,S,10606.853914,E,0.000,126.03,040125,,E,A*17
$GNVTG,126.03,T,,M,0.000,N,0.000,K,A*25
$GNGGA,082025.000,0206.915826,S,10606.853914,E,1,19,0.71,46.066,M,0,M,,*76
$GPGSA,A,3,02,03,04,07,08,09,17,21,,,,,1.37,0.71,1.17*00
$BDGSA,A,3,02,03,05,06,07,08,09,10,11,13,14,,1.37,0.71,1.17*15
$GNGLL,0206.915826,S,10606.853914,E,082025.000,A,A*51
$GNRMC,082026.000,A,0206.915826,S,10606.853913,E,0.000,126.03,040125,,E,A*13
$GNVTG,126.03,T,,M,0.000,N,0.000,K,A*25
!AIVDM,1,1,,A,17ldpHpP007UmJOvk:2;<wvn20S>,0*28
$GNGGA,082026.000,0206.915826,S,10606.853913,E,1,19,0.71,46.070,M,0,M,,*75
$GPGSA,A,3,02,03,04,07,08,09,17,21,,,,,1.37,0.71,1.17*00
$BDGSA,A,3,02,03,05,06,07,08,09,10,11,13,14,,1.37,0.71,1.17*15
$GNGLL,0206.915826,S,10606.853913,E,082026.000,A,A*55
$GNRMC,082027.000,A,0206.915827,S,10606.853913,E,0.000,126.03,040125,,E,A*13
$GNVTG,126.03,T,,M,0.000,N,0.000,K,A*25
$GNGGA,082027.000,0206.915827,S,10606.853913,E,1,19,0.71,46.075,M,0,M,,*70
$GPGSA,A,3,02,03,04,07,08,09,17,21,,,,,1.37,0.71,1.17*00
$BDGSA,A,3,02,03,05,06,07,08,09,10,11,13,14,,1.37,0.71,1.17*15
$GNGLL,0206.915827,S,10606.853913,E,082027.000,A,A*55
$GNRMC,082028.000,A,0206.915827,S,10606.853911,E,0.000,126.03,040125,,E,A*1E
$GNVTG,126.03,T,,M,0.000,N,0.000,K,A*25
$GNGGA,082028.000,0206.915827,S,10606.853911,E,1,19,0.71,46.083,M,0,M,,*74
$GPGSA,A,3,02,03,04,07,08,09,17,21,,,,,1.37,0.71,1.17*00
$BDGSA,A,3,02,03,05,06,07,08,09,10,11,13,14,,1.37,0.71,1.17*15
$GPGSV,3,1,09,01,,,34,02,63,056,43,03,25,153,35,04,38,183,39*4D
$GPGSV,3,2,09,07,48,346,46,08,11,023,15,09,45,223,44,17,32,262,38*75
$GPGSV,3,3,09,21,42,045,35*42
$BDGSV,3,1,12,02,63,268,39,03,84,087,41,04,28,090,00,05,35,270,32*6D
$BDGSV,3,2,12,06,75,027,36,07,40,348,38,08,26,168,29,09,62,357,42*6B
!AIVDM,1,1,,B,17ldHq0P00WUl8evkG=jeOvp0`@o,0*1F
$BDGSV,3,3,12,10,42,330,36,11,45,016,35,13,27,177,33,14,18,159,21*6D
$GNGLL,0206.915827,S,10606.853911,E,082028.000,A,A*58
$GNTXT,01,01,02,ANTSTATUS=OK*25
$GNRMC,082029.000,A,0206.915829,S,10606.853911,E,0.000,126.03,040125,,E,A*11
$GNVTG,126.03,T,,M,0.000,N,0.000,K,A*25
$GNGGA,082029.000,0206.915829,S,10606.853911,E,1,19,0.71,46.089,M,0,M,,*71
$GPGSA,A,3,02,03,04,07,08,09,17,21,,,,,1.37,0.71,1.17*00
$BDGSA,A,3,02,03,05,06,07,08,09,10,11,13,14,,1.37,0.71,1.17*15
$GNGLL,0206.915829,S,10606.853911,E,082029.000,A,A*57
$GNRMC,082030.000,A,0206.915832,S,10606.853911,E,0.000,126.03,040125,,E,A*13
$GNVTG,126.03,T,,M,0.000,N,0.000,K,A*25
$GNGGA,082030.000,0206.915832,S,10606.853911,E,1,19,0.71,46.085,M,0,M,,*7F
$GPGSA,A,3,02,03,04,07,08,09,17,21,,,,,1.37,0.71,1.17*00
$BDGSA,A,3,02,03,05,06,07,08,09,10,11,13,14,,1.37,0.71,1.17*15
$GNGLL,0206.915832,S,10606.853911,E,082030.000,A,A*55
$GNRMC,082031.000,A,0206.915833,S,10606.853911,E,0.000,126.03,040125,,E,A*13
$GNVTG,126.03,T,,M,0.000,N,0.000,K,A*25
$GNGGA,082031.000,0206.915833,S,10606.853911,E,1,19,0.71,46.091,M,0,M,,*7A
$GPGSA,A,3,02,03,04,07,08,09,17,21,,,,,1.37,0.71,1.17*00
$BDGSA,A,3,02,03,05,06,07,08,09,10,11,13,14,,1.37,0.71,1.17*15
$GNGLL,0206.915833,S,10606.853911,E,082031.000,A,A*55
$GNRMC,082032.000,A,0206.915836,S,10606.853912,E,0.000,126.03,040125,,E,A*16
$GNVTG,126.03,T,,M,0.000,N,0.000,K,A*25
$GNGGA,082032.000,0206.915836,S,10606.853912,E,1,19,0.71,46.096,M,0,M,,*78
$GPGSA,A,3,02,03,04,07,08,09,17,21,,,,,1.37,0.71,1.17*00
$BDGSA,A,3,02,03,05,06,07,08,09,10,11,13,14,,1.37,0.71,1.17*15
$GNGLL,0206.915836,S,10606.853912,E,082032.000,A,A*50
$GNRMC,082033.000,A,0206.915839,S,10606.853911,E,0.000,126.03,040125,,E,A*1B
$GNVTG,126.03,T,,M,0.000,N,0.000,K,A*25
$GNGGA,082033.000,0206.915839,S,10606.853911,E,1,19,0.71,46.098,M,0,M,,*7B
$GPGSA,A,3,02,03,04,07,08,09,17,21,,,,,1.37,0.71,1.17*00
$BDGSA,A,3,02,03,05,06,07,08,09,10,11,13,14,,1.37,0.71,1.17*15
$GPGSV,3,1,09,01,,,34,02,63,055,42,03,25,153,36,04,38,183,39*4C
$GPGSV,3,2,09,07,48,346,46,08,11,023,19,09,45,223,43,17,32,262,40*71
$GPGSV,3,3,09,21,42,045,33*44
$BDGSV,3,1,12,02,63,268,39,03,84,087,40,04,28,090,00,05,35,270,32*6C
$BDGSV,3,2,12,06,75,027,37,07,40,348,37,08,26,168,29,09,62,357,42*65
$BDGSV,3,3,12,10,42,330,36,11,45,016,36,13,27,177,32,14,18,159,21*6F
$GNGLL,0206.915839,S,10606.853911,E,082033.000,A,A*5D
$GNTXT,01,01,02,ANTSTATUS=OK*25
$GNRMC,082034.000,A,0206.915841,S,10606.853911,E,0.000,126.03,040125,,E,A*13
$GNVTG,126.03,T,,M,0.000,N,0.000,K,A*25
!AIVDM,2,1,8,A,57ldpH000001TPI>220dn09D4p60Dl5>222222002PN536@WN04mCQ0H2iC0,0*25
!AIVDM,2,2,8,A,D0H88888880,2*28
$GNGGA,082034.000,0206.915841,S,10606.853911,E,1,19,0.71,46.098,M,0,M,,*73
$GPGSA,A,3,02,03,04,07,08,09,17,21,,,,,1.37,0.71,1.17*00
$BDGSA,A,3,02,03,05,06,07,08,09,10,11,13,14,,1.37,0.71,1.17*15
$GNGLL,0206.915841,S,10606.853911,E,082034.000,A,A*55
$GNRMC,082035.000,A,0206.915843,S,10606.853912,E,0.000,126.03,040125,,E,A*13
$GNVTG,126.03,T,,M,0.000,N,0.000,K,A*25
$GNGGA,082035.000,0206.915843,S,10606.853912,E,1,19,0.71,46.097,M,0,M,,*7C
$GPGSA,A,3,02,03,04,07,08,09,17,21,,,,,1.37,0.71,1.17*00
$BDGSA,A,3,02,03,05,06,07,08,09,10,11,13,14,,1.37,0.71,1.17*15
$GNGLL,0206.915843,S,10606.853912,E,082035.000,A,A*55
$GNRMC,082036.000,A,0206.915846,S,10606.853912,E,0.000,126.03,040125,,E,A*15
$GNVTG,126.03,T,,M,0.000,N,0.000,K,A*25
$GNGGA,082036.000,0206.915846,S,10606.853912,E,1,19,0.71,46.094,M,0,M,,*79
$GPGSA,A,3,02,03,04,07,08,09,17,21,,,,,1.37,0.71,1.17*00
$BDGSA,A,3,02,03,05,06,07,08,09,10,11,13,14,,1.37,0.71,1.17*15
$GNGLL,0206.915846,S,10606.853912,E,082036.000,A,A*53
$GNRMC,082037.000,A,0206.915848,S,10606.853913,E,0.000,126.03,040125,,E,A*1B
$GNVTG,126.03,T,,M,0.000,N,0.000,K,A*25
$GNGGA,082037.000,0206.915848,S,10606.853913,E,1,19,0.71,46.092,M,0,M,,*71
$GPGSA,A,3,02,03,04,07,08,09,17,21,,,,,1.37,0.71,1.17*00
$BDGSA,A,3,02,03,05,06,07,08,09,10,11,13,14,,1.37,0.71,1.17*15
$GNGLL,0206.915848,S,10606.853913,E,082037.000,A,A*5D
$GNRMC,082038.000,A,0206.915850,S,10606.853913,E,0.000,126.03,040125,,E,A*1D
$GNVTG,126.03,T,,M,0.000,N,0.000,K,A*25
$GNGGA,082038.000,0206.915850,S,10606.853913,E,1,19,0.71,46.094,M,0,M,,*71
$GPGSA,A,3,02,03,04,07,08,09,17,21,,,,,1.37,0.71,1.17*00
$BDGSA,A,3,02,03,05,06,07,08,09,10,11,13,14,,1.37,0.71,1.17*15
$GPGSV,3,1,09,01,,,35,02,63,055,41,03,25,153,34,04,38,183,40*42
$GPGSV,3,2,09,07,48,346,47,08,11,023,18,09,45,223,43,17,32,262,38*7E
$GPGSV,3,3,09,21,42,044,34*42
$BDGSV,3,1,12,02,63,268,39,03,84,087,41,04,28,090,00,05,35,270,33*6C
$BDGSV,3,2,12,06,75,027,37,07,40,348,37,08,26,168,29,09,62,357,42*65
$BDGSV,3,3,12,10,42,330,36,11,45,016,35,13,27,177,34,14,18,159,22*69
$GNGLL,0206.915850,S,10606.853913,E,082038.000,A,A*5B
$GNTXT,01,01,02,ANTSTATUS=OK*25
$GNRMC,082039.000,A,0206.915852,S,10606.853915,E,0.000,126.03,040125,,E,A*18
!AIVDM,1,1,,A,17ldHq0P00WUl8cvkG?BeOw>0U1@,0*14
$GNVTG,126.03,T,,M,0.000,N,0.000,K,A*25
$GNGGA,082039.000,0206.915852,S,10606.853915,E,1,19,0.71,46.095,M,0,M,,*75
$GPGSA,A,3,02,03,04,07,08,09,17,21,,,,,1.37,0.71,1.17*00
$BDGSA,A,3,02,03,05,06,07,08,09,10,11,13,14,,1.37,0.71,1.17*15
$GNGLL,0206.915852,S,10606.853915,E,082039.000,A,A*5E
$GNRMC,082040.000,A,0206.915853,S,10606.853915,E,0.000,126.03,040125,,E,A*17
$GNVTG,126.03,T,,M,0.000,N,0.000,K,A*25
$GNGGA,082040.000,0206.915853,S,10606.853915,E,1,19,0.71,46.099,M,0,M,,*76
$GPGSA,A,3,02,03,04,07,08,09,17,21,,,,,1.37,0.71,1.17*00
$BDGSA,A,3,02,03,05,06,07,08,09,10,11,13,14,,1.37,0.71,1.17*15
$GNGLL,0206.915853,S,10606.853915,E,082040.000,A,A*51
$GNRMC,082041.000,A,0206.915854,S,10606.853916,E,0.000,126.03,040125,,E,A*12
$GNVTG,126.03,T,,M,0.000,N,0.000,K,A*25
$GNGGA,082041.000,0206.915854,S,10606.853916,E,1,19,0.71,46.102,M,0,M,,*70
$GPGSA,A,3,02,03,04,07,08,09,17,21,,,,,1.37,0.71,1.17*00
$BDGSA,A,3,02,03,05,06,07,08,09,10,11,13,14,,1.37,0.71,1.17*15
$GNGLL,0206.915854,S,10606.853916,E,082041.000,A,A*54
$GNRMC,082042.000,A,0206.915855,S,10606.853915,E,0.000,126.03,040125,,E,A*13
$GNVTG,126.03,T,,M,0.000,N,0.000,K,A*25
$GNGGA,082042.000,0206.915855,S,10606.853915,E,1,19,0.71,46.104,M,0,M,,*77
$GPGSA,A,3,02,03,04,07,08,09,17,21,,,,,1.37,0.71,1.17*00
$BDGSA,A,3,02,03,05,06,07,08,09,10,11,13,14,,1.37,0.71,1.17*15
$GNGLL,0206.915855,S,10606.853915,E,082042.000,A,A*55
$GNRMC,082043.000,A,0206.915855,S,10606.853915,E,0.000,126.03,040125,,E,A*12
$GNVTG,126.03,T,,M,0.000,N,0.000,K,A*25
$GNGGA,082043.000,0206.915855,S,10606.853915,E,1,19,0.71,46.108,M,0,M,,*7A
$GPGSA,A,3,02,03,04,07,08,09,17,21,,,,,1.37,0.71,1.17*00
$BDGSA,A,3,02,03,05,06,07,08,09,10,11,13,14,,1.37,0.71,1.17*15
$GPGSV,3,1,09,01,,,36,02,62,055,40,03,25,153,35,04,38,183,39*4E
$GPGSV,3,2,09,07,48,346,46,08,11,023,17,09,45,223,43,17,32,262,40*7F
$GPGSV,3,3,09,21,42,044,33*45
$BDGSV,3,1,12,02,63,268,40,03,84,087,40,04,28,090,00,05,35,270,32*62
$BDGSV,3,2,12,06,75,027,36,07,40,348,37,08,26,168,31,09,62,356,41*6F
$BDGSV,3,3,12,10,42,330,36,11,45,016,35,13,27,177,33,14,18,159,21*6D
$GNGLL,0206.915855,S,10606.853915,E,082043.000,A,A*54
$GNTXT,01,01,02,ANTSTATUS=OK*25
$GNRMC,082044.000,A,0206.915855,S,10606.853915,E,0.000,126.03,040125,,E,A*15
$GNVTG,126.03,T,,M,0.000,N,0.000,K,A*25
$GNGGA,082044.000,0206.915855,S,10606.853915,E,1,19,0.71,46.111,M,0,M,,*75
$GPGSA,A,3,02,03,04,07,08,09,17,21,,,,,1.37,0.71,1.17*00
$BDGSA,A,3,02,03,05,06,07,08,09,10,11,13,14,,1.37,0.71,1.17*15
$GNGLL,0206.915855,S,10606.853915,E,082044.000,A,A*53
$GNRMC,082045.000,A,0206.915856,S,10606.853915,E,0.000,126.03,040125,,E,A*17
$GNVTG,126.03,T,,M,0.000,N,0.000,K,A*25
$GNGGA,082045.000,0206.915856,S,10606.853915,E,1,19,0.71,46.117,M,0,M,,*71
$GPGSA,A,3,02,03,04,07,08,09,17,21,,,,,1.37,0.71,1.17*00
$BDGSA,A,3,02,03,05,06,07,08,09,10,11,13,14,,1.37,0.71,1.17*15
$GNGLL,0206.915856,S,10606.853915,E,082045.000,A,A*51
$GNRMC,082046.000,A,0206.915857,S,10606.853914,E,0.000,126.03,040125,,E,A*14
$GNVTG,126.03,T,,M,0.000,N,0.000,K,A*25
$GNGGA,082046.000,0206.915857,S,10606.853914,E,1,19,0.71,46.121,M,0,M,,*77
$GPGSA,A,3,02,03,04,07,08,09,17,21,,,,,1.37,0.71,1.17*00
$BDGSA,A,3,02,03,05,06,07,08,09,10,11,13,14,,1.37,0.71,1.17*15
$GNGLL,0206.915857,S,10606.853914,E,082046.000,A,A*52
$GNRMC,082047.000,A,0206.915858,S,10606.853914,E,0.000,126.03,040125,,E,A*1A
$GNVTG,126.03,T,,M,0.000,N,0.000,K,A*25
$GNGGA,082047.000,0206.915858,S,10606.853914,E,1,19,0.71,46.126,M,0,M,,*7E
$GPGSA,A,3,02,03,04,07,08,09,17,21,,,,,1.37,0.71,1.17*00
$BDGSA,A,3,02,03,05,06,07,08,09,10,11,13,14,,1.37,0.71,1.17*15
$GNGLL,0206.915858,S,10606.853914,E,082047.000,A,A*5C
$GNRMC,082048.000,A,0206.915859,S,10606.853913,E,0.000,126.03,040125,,E,A*13
$GNVTG,126.03,T,,M,0.000,N,0.000,K,A*25
$GNGGA,082048.000,0206.915859,S,10606.853913,E,1,19,0.71,46.130,M,0,M,,*70
$GPGSA,A,3,02,03,04,07,08,09,17,21,,,,,1.37,0.71,1.17*00
$BDGSA,A,3,02,03,05,06,07,08,09,10,11,13,14,,1.37,0.71,1.17*15
$GPGSV,3,1,09,01,,,35,02,62,055,42,03,25,153,33,04,38,183,39*49
$GPGSV,3,2,09,07,48,346,46,08,11,023,19,09,45,223,44,17,32,262,39*78
$GPGSV,3,3,09,21,42,044,33*45
$BDGSV,3,1,12,02,63,268,39,03,84,087,40,04,28,090,00,05,35,270,32*6C
$BDGSV,3,2,12,06,75,027,36,07,40,348,38,08,26,168,30,09,62,356,42*62
$BDGSV,3,3,12,10,42,330,37,11,45,016,36,13,27,177,32,14,18,158,24*6A
$GNGLL,0206.915859,S,10606.853913,E,082048.000,A,A*55
$GNTXT,01,01,02,ANTSTATUS=OK*25
$GNRMC,082049.000,A,0206.915860,S,10606.853913,E,0.000,126.03,040125,,E,A*18
$GNVTG,126.03,T,,M,0.000,N,0.000,K,A*25
$GNGGA,082049.000,0206.915860,S,10606.853913,E,1,19,0.71,46.133,M,0,M,,*78
$GPGSA,A,3,02,03,04,07,08,09,17,21,,,,,1.37,0.71,1.17*00
$BDGSA,A,3,02,03,05,06,07,08,09,10,11,13,14,,1.37,0.71,1.17*15
$GNGLL,0206.915860,S,10606.853913,E,082049.000,A,A*5E
!AIVDM,1,1,,B,17ldHq0P00WUl8ivkG>2eOwR0hM4,0*35
$GNRMC,082050.000,A,0206.915860,S,10606.853915,E,0.000,126.03,040125,,E,A*16
$GNVTG,126.03,T,,M,0.000,N,0.000,K,A*25
$GNGGA,082050.000,0206.915860,S,10606.853915,E,1,19,0.71,46.131,M,0,M,,*74
$GPGSA,A,3,02,03,04,07,08,09,17,21,,,,,1.37,0.71,1.17*00
$BDGSA,A,3,02,03,05,06,07,08,09,10,11,13,14,,1.37,0.71,1.17*15
$GNGLL,0206.915860,S,10606.853915,E,082050.000,A,A*50
$GNRMC,082051.000,A,0206.915861,S,10606.853917,E,0.000,126.03,040125,,E,A*14
$GNVTG,126.03,T,,M,0.000,N,0.000,K,A*25
$GNGGA,082051.000,0206.915861,S,10606.853917,E,1,19,0.71,46.132,M,0,M,,*75
$GPGSA,A,3,02,03,04,07,08,09,17,21,,,,,1.37,0.71,1.17*00
$BDGSA,A,3,02,03,05,06,07,08,09,10,11,13,14,,1.37,0.71,1.17*15
$GNGLL,0206.915861,S,10606.853917,E,082051.000,A,A*52
$GNRMC,082052.000,A,0206.915862,S,10606.853918,E,0.000,126.03,040125,,E,A*1B
$GNVTG,126.03,T,,M,0.000,N,0.000,K,A*25
$GNGGA,082052.000,0206.915862,S,10606.853918,E,1,19,0.71,46.134,M,0,M,,*7C
$GPGSA,A,3,02,03,04,07,08,09,17,21,,,,,1.37,0.71,1.17*00
$BDGSA,A,3,02,03,05,06,07,08,09,10,11,13,14,,1.37,0.71,1.17*15
$GNGLL,0206.915862,S,10606.853918,E,082052.000,A,A*5D
$GNRMC,082053.000,A,0206.915863,S,10606.853918,E,0.000,126.03,040125,,E,A*1B
$GNVTG,126.03,T,,M,0.000,N,0.000,K,A*25
$GNGGA,082053.000,0206.915863,S,10606.853918,E,1,19,0.71,46.140,M,0,M,,*7F
$GPGSA,A,3,02,03,04,07,08,09,17,21,,,,,1.37,0.71,1.17*00
$BDGSA,A,3,02,03,05,06,07,08,09,10,11,13,14,,1.37,0.71,1.17*15
$GPGSV,3,1,09,01,,,35,02,62,055,41,03,25,153,32,04,38,183,39*4B
$GPGSV,3,2,09,07,48,346,46,08,11,023,18,09,45,223,44,17,32,262,38*78
$GPGSV,3,3,09,21,42,044,32*44
$BDGSV,3,1,12,02,63,268,39,03,84,087,40,04,28,090,00,05,35,270,32*6C
$BDGSV,3,2,12,06,75,027,38,07,40,348,37,08,26,168,30,09,62,356,42*63
$BDGSV,3,3,12,10,42,330,36,11,45,016,36,13,27,177,34,14,18,158,26*6F
$GNGLL,0206.915863,S,10606.853918,E,082053.000,A,A*5D
$GNTXT,01,01,02,ANTSTATUS=OK*25
$GNRMC,082054.000,A,0206.915864,S,10606.853918,E,0.000,126.03,040125,,E,A*1B
$GNVTG,126.03,T,,M,0.000,N,0.000,K,A*25
$GNGGA,082054.000,0206.915864,S,10606.853918,E,1,19,0.71,46.144,M,0,M,,*7B
$GPGSA,A,3,02,03,04,07,08,09,17,21,,,,,1.37,0.71,1.17*00
$BDGSA,A,3,02,03,05,06,07,08,09,10,11,13,14,,1.37,0.71,1.17*15
$GNGLL,0206.915864,S,10606.853918,E,082054.000,A,A*5D
$GNRMC,082055.000,A,0206.915866,S,10606.853918,E,0.000,126.03,040125,,E,A*18
$GNVTG,126.03,T,,M,0.000,N,0.000,K,A*25
$GNGGA,082055.000,0206.915866,S,10606.853918,E,1,19,0.71,46.145,M,0,M,,*79
$GPGSA,A,3,02,03,04,07,08,09,17,21,,,,,1.37,0.71,1.17*00
$BDGSA,A,3,02,03,05,06,07,08,09,10,11,13,14,,1.37,0.71,1.17*15
$GNGLL,0206.915866,S,10606.853918,E,082055.000,A,A*5E
$GNRMC,082056.000,A,0206.915866,S,10606.853920,E,0.000,126.03,040125,,E,A*10
$GNVTG,126.03,T,,M,0.000,N,0.000,K,A*25
$GNGGA,082056.000,0206.915866,S,10606.853920,E,1,19,0.71,46.139,M,0,M,,*7A
$GPGSA,A,3,02,03,04,07,08,09,17,21,,,,,1.37,0.71,1.17*00
$BDGSA,A,3,02,03,05,06,07,08,09,10,11,13,14,,1.37,0.71,1.17*15
$GNGLL,0206.915866,S,10606.853920,E,082056.000,A,A*56
$GNRMC,082057.000,A,0206.915867,S,10606.853922,E,0.000,126.03,040125,,E,A*12
$GNVTG,126.03,T,,M,0.000,N,0.000,K,A*25
$GNGGA,082057.000,0206.915867,S,10606.853922,E,1,19,0.71,46.134,M,0,M,,*75
$GPGSA,A,3,02,03,04,07,08,09,17,21,,,,,1.37,0.71,1.17*00
$BDGSA,A,3,02,03,05,06,07,08,09,10,11,13,14,,1.37,0.71,1.17*15
$GNGLL,0206.915867,S,10606.853922,E,082057.000,A,A*54
$GNRMC,082058.000,A,0206.915870,S,10606.853926,E,0.000,126.03,040125,,E,A*1F
$GNVTG,126.03,T,,M,0.000,N,0.000,K,A*25
$GNGGA,082058.000,0206.915870,S,10606.853926,E,1,19,0.71,46.112,M,0,M,,*7C
$GPGSA,A,3,02,03,04,07,08,09,17,21,,,,,1.37,0.71,1.17*00
$BDGSA,A,3,02,03,05,06,07,08,09,10,11,13,14,,1.37,0.71,1.17*15
$GPGSV,3,1,09,01,,,35,02,62,055,40,03,25,153,33,04,38,183,38*4A
$GPGSV,3,2,09,07,49,346,46,08,11,023,18,09,45,223,44,17,32,262,39*78
$GPGSV,3,3,09,21,42,044,32*44
$BDGSV,3,1,12,02,63,268,40,03,84,087,40,04,28,090,00,05,35,270,31*61
$BDGSV,3,2,12,06,75,027,37,07,40,348,37,08,26,168,29,09,62,356,42*64
$BDGSV,3,3,12,10,42,330,36,11,45,016,34,13,27,177,32,14,18,158,27*6A
$GNGLL,0206.915870,S,10606.853926,E,082058.000,A,A*59
$GNTXT,01,01,02,ANTSTATUS=OK*25
$GNRMC,082059.000,A,0206.915870,S,10606.853927,E,0.000,126.03,040125,,E,A*1F
$GNVTG,126.03,T,,M,0.000,N,0.000,K,A*25
$GNGGA,082059.000,0206.915870,S,10606.853927,E,1,19,0.71,46.107,M,0,M,,*78
$GPGSA,A,3,02,03,04,07,08,09,17,21,,,,,1.37,0.71,1.17*00
$BDGSA,A,3,02,03,05,06,07,08,09,10,11,13,14,,1.37,0.71,1.17*15
$GNGLL,0206.915870,S,10606.853927,E,082059.000,A,A*59
$GNRMC,082100.000,A,0206.915870,S,10606.853928,E,0.000,126.03,040125,,E,A*1D
$GNVTG,126.03,T,,M,0.000,N,0.000,K,A*25
$GNGGA,082100.000,0206.915870,S,10606.853928,E,1,19,0.71,46.105,M,0,M,,*78
$GPGSA,A,3,02,03,04,07,08,09,17,21,,,,,1.37,0.71,1.16*01
$BDGSA,A,3,02,03,05,06,07,08,09,10,11,13,14,,1.37,0.71,1.16*14
$GNGLL,0206.915870,S,10606.853928,E,082100.000,A,A*5B
$GNRMC,082101.000,A,0206.915871,S,10606.853929,E,0.000,126.03,040125,,E,A*1C
$GNVTG,126.03,T,,M,0.000,N,0.000,K,A*25
$GNGGA,082101.000,0206.915871,S,10606.853929,E,1,19,0.71,46.103,M,0,M,,*7F
$GPGSA,A,3,02,03,04,07,08,09,17,21,,,,,1.37,0.71,1.16*01
$BDGSA,A,3,02,03,05,06,07,08,09,10,11,13,14,,1.37,0.71,1.16*14
$GNGLL,0206.915871,S,10606.853929,E,082101.000,A,A*5A
$GNRMC,082102.000,A,0206.915871,S,10606.853930,E,0.000,126.03,040125,,E,A*17
$GNVTG,126.03,T,,M,0.000,N,0.000,K,A*25
$GNGGA,082102.000,0206.915871,S,10606.853930,E,1,19,0.71,46.098,M,0,M,,*77
$GPGSA,A,3,02,03,04,07,08,09,17,21,,,,,1.37,0.71,1.16*01
$BDGSA,A,3,02,03,05,06,07,08,09,10,11,13,14,,1.37,0.71,1.16*14
$GNGLL,0206.915871,S,10606.853930,E,082102.000,A,A*51
$GNRMC,082103.000,A,0206.915872,S,10606.853932,E,0.000,126.03,040125,,E,A*17
$GNVTG,126.03,T,,M,0.000,N,0.000,K,A*25
$GNGGA,082103.000,0206.915872,S,10606.853932,E,1,19,0.71,46.094,M,0,M,,*7B
$GPGSA,A,3,02,03,04,07,08,09,17,21,,,,,1.37,0.71,1.16*01
$BDGSA,A,3,02,03,05,06,07,08,09,10,11,13,14,,1.37,0.71,1.16*14
$GPGSV,3,1,09,01,,,33,02,62,055,40,03,25,153,33,04,38,183,40*43
$GPGSV,3,2,09,07,49,346,46,08,11,023,21,09,45,223,44,17,32,262,38*73
$GPGSV,3,3,09,21,41,044,32*47
$BDGSV,3,1,12,02,63,268,39,03,84,087,40,04,28,090,00,05,35,270,31*6F
$BDGSV,3,2,12,06,75,027,37,07,40,348,38,08,26,168,32,09,62,356,41*62
$BDGSV,3,3,12,10,42,330,37,11,45,016,35,13,27,177,32,14,18,158,27*6A
$GNGLL,0206.915872,S,10606.853932,E,082103.000,A,A*51
$GNTXT,01,01,02,ANTSTATUS=OK*25
$GNRMC,082104.000,A,0206.915872,S,10606.853934,E,0.000,126.03,040125,,E,A*16
$GNVTG,126.03,T,,M,0.000,N,0.000,K,A*25
$GNGGA,082104.000,0206.915872,S,10606.853934,E,1,19,0.71,46.085,M,0,M,,*7A
$GPGSA,A,3,02,03,04,07,08,09,17,21,,,,,1.37,0.71,1.16*01
$BDGSA,A,3,02,03,05,06,07,08,09,10,11,13,14,,1.37,0.71,1.16*14
$GNGLL,0206.915872,S,10606.853934,E,082104.000,A,A*50
$GNRMC,082105.000,A,0206.915874,S,10606.853937,E,0.000,126.03,040125,,E,A*12
$GNVTG,126.03,T,,M,0.000,N,0.000,K,A*25
$GNGGA,082105.000,0206.915874,S,10606.853937,E,1,19,0.71,46.074,M,0,M,,*70
$GPGSA,A,3,02,03,04,07,08,09,17,21,,,,,1.37,0.71,1.16*01
$BDGSA,A,3,02,03,05,06,07,08,09,10,11,13,14,,1.37,0.71,1.16*14
$GNGLL,0206.915874,S,10606.853937,E,082105.000,A,A*54
$GNRMC,082106.000,A,0206.915877,S,10606.853940,E,0.000,126.03,040125,,E,A*12
$GNVTG,126.03,T,,M,0.000,N,0.000,K,A*25
$GNGGA,082106.000,0206.915877,S,10606.853940,E,1,19,0.71,46.064,M,0,M,,*71
$GPGSA,A,3,02,03,04,07,08,09,17,21,,,,,1.37,0.71,1.16*01
$BDGSA,A,3,02,03,05,06,07,08,09,10,11,13,14,,1.37,0.71,1.16*14
$GNGLL,0206.915877,S,10606.853940,E,082106.000,A,A*54
$GNRMC,082107.000,A,0206.915880,S,10606.853944,E,0.000,126.03,040125,,E,A*1F
$GNVTG,126.03,T,,M,0.000,N,0.000,K,A*25
$GNGGA,082107.000,0206.915880,S,10606.853944,E,1,19,0.71,46.054,M,0,M,,*7F
$GPGSA,A,3,02,03,04,07,08,09,17,21,,,,,1.37,0.71,1.16*01
$BDGSA,A,3,02,03,05,06,07,08,09,10,11,13,14,,1.37,0.71,1.16*14
$GNGLL,0206.915880,S,10606.853944,E,082107.000,A,A*59
$GNRMC,082108.000,A,0206.915883,S,10606.853949,E,0.000,126.03,040125,,E,A*1E
$GNVTG,126.03,T,,M,0.000,N,0.000,K,A*25
$GNGGA,082108.000,0206.915883,S,10606.853949,E,1,19,0.71,46.035,M,0,M,,*79
$GPGSA,A,3,02,03,04,07,08,09,17,21,,,,,1.37,0.71,1.16*01
$BDGSA,A,3,02,03,05,06,07,08,09,10,11,13,14,,1.37,0.71,1.16*14
$GPGSV,3,1,09,01,,,35,02,62,055,40,03,25,152,31,04,38,183,39*48
$GPGSV,3,2,09,07,49,346,46,08,11,023,18,09,45,223,44,17,32,262,38*79
$GPGSV,3,3,09,21,41,044,32*47
$BDGSV,3,1,12,02,63,268,40,03,84,087,39,04,28,090,00,05,35,270,31*6F
$BDGSV,3,2,12,06,75,027,37,07,40,348,37,08,26,168,30,09,62,356,42*6C
$BDGSV,3,3,12,10,42,330,37,11,45,016,34,13,27,177,32,14,18,158,27*6B
$GNGLL,0206.915883,S,10606.853949,E,082108.000,A,A*58
$GNTXT,01,01,02,ANTSTATUS=OK*25
$GNRMC,082109.000,A,0206.915886,S,10606.853953,E,0.000,126.03,040125,,E,A*11
$GNVTG,126.03,T,,M,0.000,N,0.000,K,A*25
$GNGGA,082109.000,0206.915886,S,10606.853953,E,1,19,0.71,46.018,M,0,M,,*79
$GPGSA,A,3,02,03,04,07,08,09,17,21,,,,,1.37,0.71,1.16*01
$BDGSA,A,3,02,03,05,06,07,08,09,10,11,13,14,,1.37,0.71,1.16*14
$GNGLL,0206.915886,S,10606.853953,E,082109.000,A,A*57
!AIVDM,1,1,,B,17ldHq0P00WUl8WvkG>2eOvD0U1D,0*2D
$GNRMC,082110.000,A,0206.915889,S,10606.853958,E,0.000,126.03,040125,,E,A*1D
$GNVTG,126.03,T,,M,0.000,N,0.000,K,A*25
$GNGGA,082110.000,0206.915889,S,10606.853958,E,1,19,0.71,46.000,M,0,M,,*7C
$GPGSA,A,3,02,03,04,07,08,09,17,21,,,,,1.37,0.71,1.16*01
$BDGSA,A,3,02,03,05,06,07,08,09,10,11,13,14,,1.37,0.71,1.16*14
$GNGLL,0206.915889,S,10606.853958,E,082110.000,A,A*5B
$GNRMC,082111.000,A,0206.915892,S,10606.853962,E,0.000,126.03,040125,,E,A*1F
$GNVTG,126.03,T,,M,0.000,N,0.000,K,A*25
$GNGGA,082111.000,0206.915892,S,10606.853962,E,1,19,0.71,45.981,M,0,M,,*7D
$GPGSA,A,3,02,03,04,07,08,09,17,21,,,,,1.37,0.71,1.16*01
$BDGSA,A,3,02,03,05,06,07,08,09,10,11,13,14,,1.37,0.71,1.16*14
$GNGLL,0206.915892,S,10606.853962,E,082111.000,A,A*59
!AIVDM,2,1,9,A,57ldpH000001TPI>220dn09D4p60Dl5>222222002PN536@WN04mCQ0H2iC0,0*24
!AIVDM,2,2,9,A,D0H88888880,2*29
$GNRMC,082112.000,A,0206.915894,S,10606.853966,E,0.000,126.03,040125,,E,A*1E
$GNVTG,126.03,T,,M,0.000,N,0.000,K,A*25
$GNGGA,082112.000,0206.915894,S,10606.853966,E,1,19,0.71,45.964,M,0,M,,*77
$GPGSA,A,3,02,03,04,07,08,09,17,21,,,,,1.37,0.71,1.16*01
$BDGSA,A,3,02,03,05,06,07,08,09,10,11,13,14,,1.37,0.71,1.16*14
$GNGLL,0206.915894,S,10606.853966,E,082112.000,A,A*58
$GNRMC,082113.000,A,0206.915897,S,10606.853970,E,0.000,126.03,040125,,E,A*1B
$GNVTG,126.03,T,,M,0.000,N,0.000,K,A*25
$GNGGA,082113.000,0206.915897,S,10606.853970,E,1,19,0.71,45.948,M,0,M,,*7C
$GPGSA,A,3,02,03,04,07,08,09,17,21,,,,,1.37,0.71,1.16*01
$BDGSA,A,3,02,03,05,06,07,08,09,10,11,13,14,,1.37,0.71,1.16*14
$GPGSV,3,1,09,01,,,34,02,62,055,40,03,25,152,32,04,38,183,40*44
$GPGSV,3,2,09,07,49,346,46,08,11,023,17,09,45,222,44,17,32,262,37*78
$GPGSV,3,3,09,21,41,044,31*44
$BDGSV,3,1,12,02,63,268,39,03,84,087,40,04,28,090,00,05,35,270,32*6C
$BDGSV,3,2,12,06,75,027,37,07,40,348,37,08,26,168,30,09,62,356,42*6C
$BDGSV,3,3,12,10,42,330,38,11,45,016,35,13,27,177,33,14,18,158,27*64
$GNGLL,0206.915897,S,10606.853970,E,082113.000,A,A*5D
$GNTXT,01,01,02,ANTSTATUS=OK*25
$GNRMC,082114.000,A,0206.915898,S,10606.853973,E,0.000,126.03,040125,,E,A*10
$GNVTG,126.03,T,,M,0.000,N,0.000,K,A*25
$GNGGA,082114.000,0206.915898,S,10606.853973,E,1,19,0.71,45.940,M,0,M,,*7F
$GPGSA,A,3,02,03,04,07,08,09,17,21,,,,,1.37,0.71,1.16*01
$BDGSA,A,3,02,03,05,06,07,08,09,10,11,13,14,,1.37,0.71,1.16*14
$GNGLL,0206.915898,S,10606.853973,E,082114.000,A,A*56
$GNRMC,082115.000,A,0206.915901,S,10606.853977,E,0.000,126.03,040125,,E,A*14
$GNVTG,126.03,T,,M,0.000,N,0.000,K,A*25
$GNGGA,082115.000,0206.915901,S,10606.853977,E,1,19,0.71,45.921,M,0,M,,*7C
$GPGSA,A,3,02,03,04,07,08,09,17,21,,,,,1.37,0.71,1.16*01
$BDGSA,A,3,02,03,05,06,07,08,09,10,11,13,14,,1.37,0.71,1.16*14
$GNGLL,0206.915901,S,10606.853977,E,082115.000,A,A*52
$GNRMC,082116.000,A,0206.915902,S,10606.853980,E,0.000,126.03,040125,,E,A*1C
$GNVTG,126.03,T,,M,0.000,N,0.000,K,A*25
$GNGGA,082116.000,0206.915902,S,10606.853980,E,1,19,0.71,45.913,M,0,M,,*75
$GPGSA,A,3,02,03,04,07,08,09,17,21,,,,,1.37,0.71,1.16*01
$BDGSA,A,3,02,03,05,06,07,08,09,10,11,13,14,,1.37,0.71,1.16*14
$GNGLL,0206.915902,S,10606.853980,E,082116.000,A,A*5A
$GNRMC,082117.000,A,0206.915905,S,10606.853984,E,0.000,126.03,040125,,E,A*1E
$GNVTG,126.03,T,,M,0.000,N,0.000,K,A*25
$GNGGA,082117.000,0206.915905,S,10606.853984,E,1,19,0.71,45.897,M,0,M,,*7A
$GPGSA,A,3,02,03,04,07,08,09,17,21,,,,,1.37,0.71,1.16*01
$BDGSA,A,3,02,03,05,06,07,08,09,10,11,13,14,,1.37,0.71,1.16*14
$GNGLL,0206.915905,S,10606.853984,E,082117.000,A,A*58
$GNRMC,082118.000,A,0206.915908,S,10606.853987,E,0.000,126.03,040125,,E,A*1F
$GNVTG,126.03,T,,M,0.000,N,0.000,K,A*25
$GNGGA,082118.000,0206.915908,S,10606.853987,E,1,19,0.71,45.881,M,0,M,,*7C
$GPGSA,A,3,02,03,04,07,08,09,17,21,,,,,1.37,0.71,1.16*01
$BDGSA,A,3,02,03,05,06,07,08,09,10,11,13,14,,1.37,0.71,1.16*14
$GPGSV,3,1,09,01,,,34,02,62,055,40,03,25,152,30,04,38,183,40*46
$GPGSV,3,2,09,07,49,346,46,08,11,023,18,09,45,222,44,17,32,262,37*77
$GPGSV,3,3,09,21,41,044,31*44
$BDGSV,3,1,12,02,63,268,40,03,84,087,40,04,28,090,00,05,35,270,31*61
$BDGSV,3,2,12,06,75,027,38,07,40,348,39,08,26,168,29,09,62,356,42*65
$BDGSV,3,3,12,10,42,330,37,11,45,016,34,13,27,177,31,14,18,158,28*67
$GNGLL,0206.915908,S,10606.853987,E,082118.000,A,A*59
$GNTXT,01,01,02,ANTSTATUS=OK*25
!AIVDM,1,1,,A,17ldHq0P00WUl8cvkG<jeOvT0d0F,0*62
$GNRMC,082119.000,A,0206.915909,S,10606.853990,E,0.000,126.03,040125,,E,A*19
$GNVTG,126.03,T,,M,0.000,N,0.000,K,A*25
$GNGGA,082119.000,0206.915909,S,10606.853990,E,1,19,0.71,45.874,M,0,M,,*70
$GPGSA,A,3,02,03,04,07,08,09,17,21,,,,,1.37,0.71,1.16*01
$BDGSA,A,3,02,03,05,06,07,08,09,10,11,13,14,,1.37,0.71,1.16*14
$GNGLL,0206.915909,S,10606.853990,E,082119.000,A,A*5F
$GNRMC,082120.000,A,0206.915910,S,10606.853992,E,0.000,126.03,040125,,E,A*19
$GNVTG,126.03,T,,M,0.000,N,0.000,K,A*25
$GNGGA,082120.000,0206.915910,S,10606.853992,E,1,19,0.71,45.869,M,0,M,,*7C
$GPGSA,A,3,02,03,04,07,08,09,17,21,,,,,1.37,0.71,1.16*01
$BDGSA,A,3,02,03,05,06,07,08,09,10,11,13,14,,1.37,0.71,1.16*14
$GNGLL,0206.915910,S,10606.853992,E,082120.000,A,A*5F
$GNRMC,082121.000,A,0206.915911,S,10606.853994,E,0.000,126.03,040125,,E,A*1F
$GNVTG,126.03,T,,M,0.000,N,0.000,K,A*25
$GNGGA,082121.000,0206.915911,S,10606.853994,E,1,19,0.71,45.865,M,0,M,,*76
$GPGSA,A,3,02,03,04,07,08,09,17,21,,,,,1.37,0.71,1.16*01
$BDGSA,A,3,02,03,05,06,07,08,09,10,11,13,14,,1.37,0.71,1.16*14
$GNGLL,0206.915911,S,10606.853994,E,082121.000,A,A*59
$GNRMC,082122.000,A,0206.915912,S,10606.853996,E,0.000,126.03,040125,,E,A*1D
$GNVTG,126.03,T,,M,0.000,N,0.000,K,A*25
$GNGGA,082122.000,0206.915912,S,10606.853996,E,1,19,0.71,45.862,M,0,M,,*73
$GPGSA,A,3,02,03,04,07,08,09,17,21,,,,,1.37,0.71,1.16*01
$BDGSA,A,3,02,03,05,06,07,08,09,10,11,13,14,,1.37,0.71,1.16*14
$GNGLL,0206.915912,S,10606.853996,E,082122.000,A,A*5B
$GNRMC,082123.000,A,0206.915912,S,10606.853999,E,0.000,126.03,040125,,E,A*13
$GNVTG,126.03,T,,M,0.000,N,0.000,K,A*25
$GNGGA,082123.000,0206.915912,S,10606.853999,E,1,19,0.71,45.854,M,0,M,,*78
$GPGSA,A,3,02,03,04,07,08,09,17,21,,,,,1.37,0.71,1.16*01
$BDGSA,A,3,02,03,05,06,07,08,09,10,11,13,14,,1.37,0.71,1.16*14
$GPGSV,3,1,09,01,,,34,02,62,055,39,03,25,152,32,04,38,183,40*4A
$GPGSV,3,2,09,07,49,346,46,08,11,023,17,09,45,222,44,17,32,263,37*79
$GPGSV,3,3,09,21,41,044,30*45
$BDGSV,3,1,12,02,63,268,39,03,84,087,40,04,28,090,00,05,35,270,31*6F
$BDGSV,3,2,12,06,75,027,37,07,40,348,37,08,26,168,30,09,62,356,42*6C
$BDGSV,3,3,12,10,42,330,37,11,45,016,34,13,27,177,32,14,18,158,28*64
$GNGLL,0206.915912,S,10606.853999,E,082123.000,A,A*55
$GNTXT,01,01,02,ANTSTATUS=OK*25
$GNRMC,082124.000,A,0206.915913,S,10606.854001,E,0.000,126.03,040125,,E,A*1A
$GNVTG,126.03,T,,M,0.000,N,0.000,K,A*25
$GNGGA,082124.000,0206.915913,S,10606.854001,E,1,19,0.71,45.847,M,0,M,,*73
$GPGSA,A,3,02,03,04,07,08,09,17,21,,,,,1.37,0.71,1.16*01
$BDGSA,A,3,02,03,05,06,07,08,09,10,11,13,14,,1.37,0.71,1.16*14
$GNGLL,0206.915913,S,10606.854001,E,082124.000,A,A*5C
$GNRMC,082125.000,A,0206.915913,S,10606.854003,E,0.000,126.03,040125,,E,A*19
$GNVTG,126.03,T,,M,0.000,N,0.000,K,A*25
$GNGGA,082125.000,0206.915913,S,10606.854003,E,1,19,0.71,45.839,M,0,M,,*79
$GPGSA,A,3,02,03,04,07,08,09,17,21,,,,,1.37,0.71,1.16*01
$BDGSA,A,3,02,03,05,06,07,08,09,10,11,13,14,,1.37,0.71,1.16*14
$GNGLL,0206.915913,S,10606.854003,E,082125.000,A,A*5F
$GNRMC,082126.000,A,0206.915914,S,10606.854005,E,0.000,126.03,040125,,E,A*1B
$GNVTG,126.03,T,,M,0.000,N,0.000,K,A*25
$GNGGA,082126.000,0206.915914,S,10606.854005,E,1,19,0.71,45.833,M,0,M,,*71
$GPGSA,A,3,02,03,04,07,08,09,17,21,,,,,1.37,0.71,1.16*01
$BDGSA,A,3,02,03,05,06,07,08,09,10,11,13,14,,1.37,0.71,1.16*14
$GNGLL,0206.915914,S,10606.854005,E,082126.000,A,A*5D
$GNRMC,082127.000,A,0206.915917,S,10606.854008,E,0.000,126.03,040125,,E,A*14
$GNVTG,126.03,T,,M,0.000,N,0.000,K,A*25
$GNGGA,082127.000,0206.915917,S,10606.854008,E,1,19,0.71,45.816,M,0,M,,*79
$GPGSA,A,3,02,03,04,07,08,09,17,21,,,,,1.37,0.71,1.16*01
$BDGSA,A,3,02,03,05,06,07,08,09,10,11,13,14,,1.37,0.71,1.16*14
$GNGLL,0206.915917,S,10606.854008,E,082127.000,A,A*52
$GNRMC,082128.000,A,0206.915918,S,10606.854011,E,0.000,126.03,040125,,E,A*1C
$GNVTG,126.03,T,,M,0.000,N,0.000,K,A*25
$GNGGA,082128.000,0206.915918,S,10606.854011,E,1,19,0.71,45.802,M,0,M,,*74
$GPGSA,A,3,02,03,04,07,08,09,17,21,,,,,1.37,0.71,1.16*01
$BDGSA,A,3,02,03,05,06,07,08,09,10,11,13,14,,1.37,0.71,1.16*14
$GPGSV,3,1,09,01,,,35,02,62,055,39,03,25,152,31,04,38,183,41*49
$GPGSV,3,2,09,07,49,346,46,08,11,023,16,09,45,222,44,17,32,263,38*77
$GPGSV,3,3,09,21,41,044,29*4D
$BDGSV,3,1,12,02,63,268,39,03,84,087,40,04,28,090,00,05,35,270,32*6C
$BDGSV,3,2,12,06,75,027,37,07,40,348,37,08,26,168,29,09,62,356,42*64
!AIVDM,1,1,,B,17ldHq0P00WUl8gvkG=BeOvp0U1D,0*5A
$BDGSV,3,3,12,10,42,330,37,11,45,016,34,13,27,177,32,14,18,158,28*64
$GNGLL,0206.915918,S,10606.854011,E,082128.000,A,A*5A
$GNTXT,01,01,02,ANTSTATUS=OK*25
$GNRMC,082129.000,A,0206.915920,S,10606.854014,E,0.000,126.03,040125,,E,A*13
$GNVTG,126.03,T,,M,0.000,N,0.000,K,A*25
$GNGGA,082129.000,0206.915920,S,10606.854014,E,1,19,0.71,45.787,M,0,M,,*79
$GPGSA,A,3,02,03,04,07,08,09,17,21,,,,,1.37,0.71,1.16*01
$BDGSA,A,3,02,03,05,06,07,08,09,10,11,13,14,,1.37,0.71,1.16*14
$GNGLL,0206.915920,S,10606.854014,E,082129.000,A,A*55
$GNRMC,082130.000,A,0206.915922,S,10606.854017,E,0.000,126.03,040125,,E,A*1A
$GNVTG,126.03,T,,M,0.000,N,0.000,K,A*25
$GNGGA,082130.000,0206.915922,S,10606.854017,E,1,19,0.71,45.774,M,0,M,,*7C
$GPGSA,A,3,02,03,04,07,08,09,17,21,,,,,1.37,0.71,1.16*01
$BDGSA,A,3,02,03,05,06,07,08,09,10,11,13,14,,1.37,0.71,1.16*14
$GNGLL,0206.915922,S,10606.854017,E,082130.000,A,A*5C
$GNRMC,082131.000,A,0206.915924,S,10606.854020,E,0.000,126.03,040125,,E,A*19
$GNVTG,126.03,T,,M,0.000,N,0.000,K,A*25
$GNGGA,082131.000,0206.915924,S,10606.854020,E,1,19,0.71,45.759,M,0,M,,*70
$GPGSA,A,3,02,03,04,07,08,09,17,21,,,,,1.37,0.71,1.16*01
$BDGSA,A,3,02,03,05,06,07,08,09,10,11,13,14,,1.37,0.71,1.16*14
$GNGLL,0206.915924,S,10606.854020,E,082131.000,A,A*5F
$GNRMC,082132.000,A,0206.915925,S,10606.854024,E,0.000,126.03,040125,,E,A*1F
$GNVTG,126.03,T,,M,0.000,N,0.000,K,A*25
$GNGGA,082132.000,0206.915925,S,10606.854024,E,1,19,0.71,45.742,M,0,M,,*7C
$GPGSA,A,3,02,03,04,07,08,09,17,21,,,,,1.37,0.71,1.16*01
$BDGSA,A,3,02,03,05,06,07,08,09,10,11,13,14,,1.37,0.71,1.16*14
$GNGLL,0206.915925,S,10606.854024,E,082132.000,A,A*59
$GNRMC,082133.000,A,0206.915926,S,10606.854027,E,0.000,126.03,040125,,E,A*1E
$GNVTG,126.03,T,,M,0.000,N,0.000,K,A*25
$GNGGA,082133.000,0206.915926,S,10606.854027,E,1,19,0.71,45.727,M,0,M,,*7E
$GPGSA,A,3,02,03,04,07,08,09,17,21,,,,,1.37,0.71,1.16*01
$BDGSA,A,3,02,03,05,06,07,08,09,10,11,13,14,,1.37,0.71,1.16*14
$GPGSV,3,1,09,01,,,33,02,62,055,39,03,25,152,31,04,38,183,40*4E
$GPGSV,3,2,09,07,49,346,45,08,11,023,15,09,45,222,44,17,32,263,37*78
$GPGSV,3,3,09,21,41,044,29*4D
